Name,Material,Sales Contact,Contact Number,Email,Address,City,State,pin_color,Location_type,notes,service,Latitude,Longitude
"Mid Ohio Valley Lime, Inc.",Hydrate Lime,N/A,888-837-6685,N/A,14949 St Rte 7,Marietta,OH,#F54927,Plant,N/A,Pneumatic Trucking,39.392139,-81.404578
Smith Trucking,N/A,N/A,N/A,N/A,N/A,N/A,N/A,#F54928,N/A,N/A,Pneumatic Trucking,39.7837304,-100.445882
RRR,N/A,N/A,800-472-4714,N/A,1195 Mauldin Rd,Calhoun ,GA ,#F54929,N/A,N/A,Pneumatic Trucking,34.5311893,-84.9437098
NAJ Trucking--never call competitive,N/A,N/A,N/A,N/A,N/A,N/A,N/A,#F54930,N/A,N/A,Pneumatic Trucking,39.7837304,-100.445882
UST Transport,N/A,Chuck Johnson,702-355-5323,chuck.johnson@us-transport.com,N/A,N/A,AZ,#F54931,N/A,N/A,Pneumatic Trucking,34.395342,-111.763275
Apex Logistics LLC,N/A,Joshua Vermillion,702-701-3643,josh.vermillion@apexlogisticsllc.com,9201 N 7th Street,Phoenix,AZ,#F54932,N/A,N/A,Pneumatic Trucking,33.569724,-112.065114
CTI Dry Bulk Hauling,N/A,N/A,317-783-0700,N/A,121 Premier Drive,Belleville,IL,#F54933,N/A,N/A,Pneumatic Trucking,38.5020719,-89.9442369
Superior Bulk,N/A,Jeremy Jondahl,602-828-3257,N/A,N/A,N/A,AZ,#F54934,N/A,N/A,Pneumatic Trucking,34.395342,-111.763275
Main Office,N/A,N/A,N/A,N/A,3105 N Maples St.,Mesa,AZ,#F54935,N/A,N/A,Pneumatic Trucking,33.32865,-111.583739
Glendale Yard,N/A,N/A,N/A,N/A,6500 N Agua Fria Shore,Glendale,AZ,#F54936,N/A,N/A,Pneumatic Trucking,33.530154,-112.307063
Kingman Yard,N/A,N/A,N/A,N/A,2301 Shinarump Dr.,Kingman,AZ,#F54937,N/A,N/A,Pneumatic Trucking,35.156397,-114.140841
Sloan Yard,N/A,N/A,N/A,N/A,Water Well Drill Rd.,Sloan,NV,#F54938,N/A,N/A,Pneumatic Trucking,35.9315427,-115.2044935
Tucson Yard,N/A,N/A,N/A,N/A,5400 W Massingale Rd.,Tucson,AZ,#F54939,N/A,N/A,Pneumatic Trucking,32.344991,-111.07831
Dry Run Trucking,N/A,Kris Pietsch,602-388-3675,N/A,6741 W Rock Solid Way,Chandler,AZ,#F54940,N/A,N/A,Pneumatic Trucking,33.297731,-111.758075
J&E,N/A,Jerry,505-304-7179,N/A,165 Escondido St.,Hatch,NM,#F54941,N/A,N/A,Pneumatic Trucking,32.671807,-107.155473
K Trucking,N/A,James,928-243-1042,N/A,N/A,N/A,East AZ/NM,#F54942,N/A,N/A,Pneumatic Trucking,34.50034,-106.00085
Trinity Logistics,N/A,Bailie Paulus,763-276-4306,bpaulus@trinitylogisticsmn.com,N/A,N/A,All US,#F54943,N/A,Office: 612-314-2433,Pneumatic Trucking,40.8077797,-84.0572225
Corporate Office,N/A,N/A,800-846-3400,N/A,50 Fallon Avenue,Seaford,DE,#F54944,N/A,N/A,Pneumatic Trucking,38.6578568,-75.5992025
Scottsdale,N/A,N/A,855-830-6827,N/A,8655 E Via De Ventura Suite E-250,Scottsdale,AZ,#F54945,N/A,N/A,Pneumatic Trucking,33.554003,-111.896175
Orlando,N/A,N/A,407-852-7299,N/A,5422 Carrier Dr. Suite 304,Orlando ,FL,#F54946,N/A,N/A,Pneumatic Trucking,28.4572838,-81.4527067
Urbandale,N/A,N/A,515-207-1401,N/A,4320 114th St. ,Urbandale,IA,#F54947,N/A,N/A,Pneumatic Trucking,41.6387943,-93.7752216
Kansas City,N/A,N/A,800-210-3000,N/A,7200 NW 86th Street Suite N,Kansas City,MO,#F54948,N/A,N/A,Pneumatic Trucking,39.2504873,-94.6661179
Fort Worth,N/A,N/A,877-346-4455,N/A,14800 Trinity Blvd. Suite 110,Fort Worth,TX,#F54949,N/A,N/A,Pneumatic Trucking,32.82077,-97.0457888
TKM Materials,N/A,Terry,931-260-0008,terry@TKMMaterials.com,1806 N Court Street,Marion,IL,#F54950,N/A,N/A,Pneumatic Trucking,37.7466424,-88.9327335
Venezia Bulk Transport Inc.,N/A,N/A,610-587-1005,apual@veneziainc.com,N/A,N/A,TN/Carolinas,#F54951,N/A,N/A,Pneumatic Trucking,48.7604746,-122.4512209
Keene Carriers,N/A,N/A,276-880-1206,N/A,13950 US HWY 19,Rosedale,VA,#F54952,N/A,N/A,Pneumatic Trucking,36.9779347,-81.8725704
Taylor Transport Inc.,N/A,N/A,770-387-7500,contact@taylortruck.net,1708 GA-113 ,Cartersville,GA,#F54953,N/A,N/A,Pneumatic Trucking,34.1369063,-84.8450233
Parker Nall Perdido Trucking Service,N/A,N/A,251-508-3779,pnall@perdidotrucking.com,56 Midtown Park West,Mobile,AL/Gulf,#F54954,N/A,N/A,Pneumatic Trucking,42.05655,-87.7886
Evergreen Transport,N/A,JR Dykes,205-936-0359,N/A,"41 West I-65 Service Rd. North, Suite 300",Mobile,AL/Gulf,#F54955,N/A,N/A,Pneumatic Trucking,33.101208,-84.698471
Johnston Trucking LLC,N/A,Luke,334-735-2283,luke@johnstontrucking.com,US 231 Business,Brundidge,AL/Gulf,#F54956,N/A,N/A,Pneumatic Trucking,35.56043,-79.28169
Rodgers Cartage Co.,N/A,N/A,205-621-9098,N/A,176 Longview Cir,Calera,AL/Gulf,#F54957,N/A,Primary Line: 1-800-507-8848,Pneumatic Trucking,35.56043,-79.28169
Get Up & Go Pronto Transportation--call to confirm information,N/A,N/A,205-600-4077,N/A,1720 Hurricane Rd Lot 18,Cottondale,AL/Gulf,#F54958,N/A,N/A,Pneumatic Trucking,35.56043,-79.28169
Triple K Trucking--call to confirm information,N/A,N/A,205-202-9403,N/A,N/A,N/A,AL/Gulf,#F54959,N/A,N/A,Pneumatic Trucking,31.3564331,-85.3276842
MLC Trucking,N/A,N/A,N/A,N/A,N/A,N/A,N/A,#F54960,N/A,N/A,Pneumatic Trucking,39.7837304,-100.445882
Ste. Genevieve,N/A,N/A,N/A,N/A,16136 Highway 61,Ste. Genevieve ,MO,#F54961,N/A,N/A,Pneumatic Trucking,37.979526,-90.075731
Vicksburg,N/A,N/A,N/A,N/A,1543 Haining Rd.,Vicksburg,MS,#F54962,N/A,N/A,Pneumatic Trucking,32.3916788,-90.8892064
Verona,N/A,N/A,N/A,N/A,525 Hance Rd.,Verona,KY,#F54963,N/A,N/A,Pneumatic Trucking,38.829698,-84.758687
Weirton,N/A,N/A,N/A,N/A,3001 Birch Dr,Weirton,WV,#F54964,N/A,N/A,Pneumatic Trucking,40.387193,-80.618053
Chester,N/A,N/A,N/A,N/A,1544 Beltline Rd.,Chester,SC,#F54965,N/A,N/A,Pneumatic Trucking,34.7097104,-81.1343334
Journey LTD,N/A,N/A,N/A,N/A,N/A,N/A,N/A,#F54966,N/A,N/A,Pneumatic Trucking,39.7837304,-100.445882
Tatum's Hauling,N/A,N/A,804-561-6563,tatumshauling1984@gmail.com,21520 Patrick Henry Highway,Jetersville,VA,#F54967,N/A,N/A,Pneumatic Trucking,37.2893301,-78.1050068
Summit Trucking,N/A,N/A,214-631-3080,N/A,1358 Medical District Drive,Dallas,TX,#F54968,N/A,N/A,Pneumatic Trucking,32.8039923,-96.8405028
Bob's Moraine Trucking,N/A,N/A,937-746-8420,orders@bmtinc.us,8231 Claude Thomas Road,Franklin,OH,#F54969,N/A,Delivers within 250 mile radius of Franklin Ohio,Pneumatic Trucking,39.5633495,-84.2726533
Klink Trucking,N/A,N/A,260-587-9113,klink@klinktrucking.com,3320 W 800 S,Ashley,IN,#F54970,N/A,N/A,Pneumatic Trucking,41.527165,-85.041701
Able Bulk Carriers,N/A,Adam Fratianne,440-413-8674,adam@ablebulkcarriers.com,925 Callendar Blvd.,Painesville,OH,#F54971,N/A,N/A,Pneumatic Trucking,41.7252141,-81.2839797
Tully Transport,N/A,N/A,606-564-3129,N/A,8027 KY Highway 3161 Rd.,Maysville,OH,#F54972,N/A,N/A,Pneumatic Trucking,41.079502,-84.037882
Mid Ohio Valley Lime,N/A,N/A,740-373-2481,N/A,14949 State Route 7,Marietta,OH,#F54973,N/A,N/A,Pneumatic Trucking,39.392139,-81.404578
SCH Services-call to verify contact info,N/A,N/A,800-547-9918,info@sch-ces.com,1650 Murfreesboro Rd.,Franklin,TN,#F54974,N/A,N/A,Pneumatic Trucking,35.9031989,-86.792546
Wooster Motor Ways,N/A,N/A,330-264-7690,N/A,3501 West Old Lincoln Way,Wooster,OH,#F54975,N/A,N/A,Pneumatic Trucking,40.7993199,-81.9617845
Wayne W Sell,N/A,Tom Weleski,800-444-4997,N/A,236 Winfield Road,Sarver,PA,#F54976,N/A,N/A,Pneumatic Trucking,40.759788,-79.783791
Journey Trucking,N/A,N/A,888-726-9979,info@journeytrucking.com,11418 N Dixie Drive,Vandalia,OH,#F54977,N/A,N/A,Pneumatic Trucking,39.9143935,-84.1989871
Tripp Trucking--call to verify,N/A,Jeffrey Bernard Tripp,706-453-4165,N/A,1030 Charity Drive,Greensboro,GA,#F54978,N/A,N/A,Pneumatic Trucking,33.5722922,-83.1950866
Whitetail Trucking--call to verify,N/A,N/A,757-342-6654,N/A,15203 Wyatt CT,Carrollton,VA,#F54979,N/A,N/A,Pneumatic Trucking,36.9291052,-76.5510709
US Bulk Transport,N/A,N/A,800-609-6611,info@usbulktransport.com,205 Pennbriar Drive,Erie,PA,#F54980,N/A,N/A,Pneumatic Trucking,42.0740083,-80.0390704
Beelman Truck CO,N/A,N/A,877-945-6688,N/A,1 Racehorse Drive,East St. Louis,IL,#F54981,N/A,N/A,Pneumatic Trucking,39.1247,-88.542062
Bowman Logistics,N/A,N/A,240-625-2799,N/A,10228 Governor Lane Boulevard Suite #3006 ,Williamsport,MD,#F54982,N/A,N/A,Pneumatic Trucking,39.596653,-77.804723
Crystal Trucking--call to verify,N/A,N/A,847-553-1592,N/A,1491 S 6th Avenue,Des Plaines,IL,#F54983,N/A,N/A,Pneumatic Trucking,42.025871,-87.9076608
ECI Trucking,N/A,N/A,N/A,N/A,N/A,N/A,N/A,#F54984,N/A,N/A,Pneumatic Trucking,39.7837304,-100.445882
Sams Hauling and Trucking,N/A,N/A,865-982-8011,N/A,2394 Wildwood Rd,Maryville,TN,#F54985,N/A,N/A,Pneumatic Trucking,35.784281,-83.943277
McDowell ,N/A,N/A,307-797-4278,N/A,N/A,N/A,N/A,#F54986,N/A,N/A,Pneumatic Trucking,39.7837304,-100.445882
Global Construction Transport,N/A,Darrell Simmons,317-667-3350,N/A,2066 S Raber Road,Columbia City,IN,#F54987,N/A,N/A,Pneumatic Trucking,41.131657,-85.454366
Henderson Trucking,N/A,Mike,740-369-6100,mike@hendersontrucking.com,124 Henderson CT,Delaware,OH,#F54988,N/A,N/A,Pneumatic Trucking,40.2815072,-83.087251
Bulk Transit,N/A,N/A,614-873-4632,info@bulktransit.com,7177 Industrial Parkway,Plain City,OH,#F54989,N/A,N/A,Pneumatic Trucking,40.114807,-83.187372
Khunle Trucking,N/A,N/A,440-564-7168,N/A,14905 Cross Creek Pkwy,Newbury,OH,#F54990,N/A,N/A,Pneumatic Trucking,41.4614912,-81.2685002
Predator,N/A,N/A,1-800-235-5624,N/A,3181 Trumbull Avenue,McDonald,OH,#F54991,N/A,N/A,Pneumatic Trucking,41.157268,-80.736376
R&J Trucking,N/A,N/A,330-758-0841,N/A,8063 Southern Blvd.,Boardman,OH,#F54992,N/A,N/A,Pneumatic Trucking,41.0045573,-80.6533587
Bulkmatic,N/A,N/A,800-535-8505,N/A,2001 North Cline Avenue,Griffith,IN,#F54993,N/A,N/A,Pneumatic Trucking,41.5300744,-87.4325106
RSA Transport,N/A,N/A,724-545-1407,N/A,1131 Freeport Road,Kittanning ,PA,#F54994,N/A,N/A,Pneumatic Trucking,40.769629,-79.639452
SEFA,N/A,Kerry Burke,803-530-2825,kburke@sefagroup.com,9639 Highmarket Street,Georgetown,SC,#F54995,N/A,N/A,Pneumatic Trucking,33.3687424,-79.2813641
DRI Bulk Transport Company,N/A,N/A,N/A,N/A,8063 Southern Blvd.,Youngstown,OH,#F54996,N/A,N/A,Pneumatic Trucking,41.0635833,-80.6567926
SRS,N/A,N/A,N/A,N/A,N/A,N/A,N/A,#F54997,N/A,N/A,Pneumatic Trucking,39.7837304,-100.445882
Sids Trucking,N/A,N/A,N/A,N/A,N/A,N/A,N/A,#F54998,N/A,N/A,Pneumatic Trucking,39.7837304,-100.445882
Pickett Concrete,N/A,Jim Galloway,7405329123,pickettconcrete@frontier.com,4127 Westward Avenue,Columbus,OH,#F54999,N/A,N/A,Pneumatic Trucking,39.9709161,-83.1132169
United Rentals - Columbiana,N/A,Timothy Dohn,(330) 482-1100,N/A,44691 State Route 14,Columbiana,OH,#2F4A6D,N/A,N/A,Equipment Rental,40.8787137,-80.5987213
United Rentals - East Liverpool,N/A,Timothy Dohn,(330) 385-5381,N/A,16695 Lisbon St,E Liverpool,OH,#2F4A6D,N/A,N/A,Equipment Rental,40.6348265,-80.5920179
United Rentals - Marietta,N/A,Tracey Ayers,(740) 373-5161,N/A,1205 Pike St,Marietta,OH,#2F4A6D,N/A,N/A,Equipment Rental,39.4108387,-81.4308085
United Rentals - Marietta,N/A,Tracey Ayers,(740) 373-3292,N/A,18417 Sate Route 7,Marietta,OH,#2F4A6D,N/A,N/A,Equipment Rental,39.392139,-81.404578
United Rentals - Perrysburg,N/A,Michael Lowell,(419) 874-3141,N/A,620 Eckel Rd,Perrysburg,OH,#2F4A6D,N/A,N/A,Equipment Rental,41.5446752,-83.6445793
United Rentals - Coventry Twp,N/A,Mark Walker,(330) 724-7635,N/A,2292 S. Arlington Rd,Coventry Twp,OH,#2F4A6D,N/A,N/A,Equipment Rental,41.008537,-81.4920542
United Rentals - Dayton,N/A,Richard Hart,(937) 235-5395,N/A,5773 Executive Blvd.,Dayton,OH,#2F4A6D,N/A,N/A,Equipment Rental,39.872304,-84.134395
United Rentals - Cincinnati,N/A,Scott Rudolph,(513) 346-2800,N/A,898 East Crescentville Rd,Cincinnati,OH,#2F4A6D,N/A,N/A,Equipment Rental,39.301624,-84.453517
United Rentals - Cleveland,N/A,Joseph Pannitto,(216) 749-3400,N/A,13960 Brookpark Rd,Cleveland,OH,#2F4A6D,N/A,N/A,Equipment Rental,41.4187168,-81.7249285
United Rentals - Columbus,N/A,Joshua Sets,(614) 279-6352,N/A,1825 McKenley Ave.,Columbus,OH,#2F4A6D,N/A,N/A,Equipment Rental,39.964189,-83.050801
United Rentals - Groveport,N/A,Jordan Denson,(614) 335-5356,N/A,4141 Hamilton Square,Groveport,OH,#2F4A6D,N/A,N/A,Equipment Rental,39.869018,-82.884914
United Rentals - Westerville,N/A,Brandon Gerhardt,(614) 541-2696,N/A,5755 Westeville Rd,Westerville,OH,#2F4A6D,N/A,N/A,Equipment Rental,40.05986,-84.020759
United Rentals - Dublin,N/A,Nicholas Toups,(614) 335-5357,N/A,7570 Fishel Dr S,Dublin,OH,#2F4A6D,N/A,N/A,Equipment Rental,40.102689,-83.192341
United Rentals - West Chester,N/A,Josh Straight,(513) 845-0150,N/A,4764 Ashley Dr,West Chester,OH,#2F4A6D,N/A,N/A,Equipment Rental,39.3261206,-84.4643306
United Rentals - Lynchburg,N/A,Roger Castillo,(434) 846-7368,N/A,3560 Young Pl,Lynchburg,VA,#2F4A6D,N/A,N/A,Equipment Rental,37.3659952,-79.1664972
United Rentals - Fredericksburg,N/A,Kevin Sledziona,(540) 710-5370,N/A,4616 Lassen LN,Fredericksburg,VA,#2F4A6D,N/A,N/A,Equipment Rental,38.25999,-77.495127
United Rentals - Covington,N/A,David Vincent,(540) 965-6569,N/A,807 Grayson Ave,Covington,VA,#2F4A6D,N/A,N/A,Equipment Rental,37.777041,-79.970099
United Rentals - Winchester,N/A,James Hartness,(540) 545-8383,N/A,287 Welltown CT,Winchester,VA,#2F4A6D,N/A,N/A,Equipment Rental,39.231613,-78.143174
United Rentals - Manassas,N/A,Ricky Lamot,(703) 368-6065,N/A,9415 Wellington Rd,Manassas,VA,#2F4A6D,N/A,N/A,Equipment Rental,38.7517787,-77.4925396
United Rentals - Manassas,N/A,Ricky Lamot,(703) 656-2130,N/A,9485 Contractors CT,Manassas,VA,#2F4A6D,N/A,N/A,Equipment Rental,38.749404,-77.545065
United Rentals - Christiansburg,N/A,Susan Stanger,(540) 382-9036,N/A,1570 Radford Rd,Christianburg,VA,#2F4A6D,N/A,N/A,Equipment Rental,39.890764,-89.609757
United Rentals - Harrisonburg,N/A,Jeremy Bryant,(540) 433-0011,N/A,141 Leray CR,Harrisonburg,VA,#2F4A6D,N/A,N/A,Equipment Rental,38.548438,-78.794066
United Rentals - Chesapeake,N/A,Pamela Newbern,(757) 543-5723,N/A,4333 Bainbridge Blvd,Chesapeake,VA,#2F4A6D,N/A,N/A,Equipment Rental,36.7778964,-76.2839273
United Rentals - Glen Allen,N/A,Audrey Bondurant,(804) 550-2978,N/A,10374 Washington Hwy,Glen Allen,VA,#2F4A6D,N/A,N/A,Equipment Rental,37.6771618,-77.5027925
United Rentals - Hampton,N/A,Paul Reca,(757) 247-5891,N/A,2327 W Pembroke Ave,Hampton,VA,#2F4A6D,N/A,N/A,Equipment Rental,37.0034706,-76.3978665
United Rentals - Chester,N/A,Michael Lotti,(804) 768-2266,N/A,11200 Iron Bridge Rd,Chester,VA,#2F4A6D,N/A,N/A,Equipment Rental,37.3497001,-77.4719805
United Rentals - Sterling,N/A,Michael Chaney,(703) 327-2800,N/A,23535 Overland Drive,Sterling,VA,#2F4A6D,N/A,N/A,Equipment Rental,38.960426,-77.503131
United Rentals - Roanoke,N/A,Michael Damiano,(540) 345-8665,N/A,1238 Orange Ave,Roanoke,VA,#2F4A6D,N/A,N/A,Equipment Rental,37.28458,-79.9204786
United Rentals - Charlottesville,N/A,Christopher Caole,(434) 977-8196,N/A,1745 Avon Street Ext,Charlottesville,VA,#2F4A6D,N/A,N/A,Equipment Rental,37.9976977,-78.4988354
United Rentals - Newport News,N/A,Waylon Wakefield,(757) 874-5013,N/A,600 Industrial Park,Newport News,VA,#2F4A6D,N/A,N/A,Equipment Rental,37.164591,-76.5399755
United Rentals - Triangle,N/A,Sunny Thapa,(703) 221-4000,N/A,18309 Richmond Hwy,Triangle,VA,#2F4A6D,N/A,N/A,Equipment Rental,38.5510721,-77.3338602
United Rentals - Richmond,N/A,Charles Drummond,(804) 233-7368,N/A,1500 Commerce Rd,Richmond,VA,#2F4A6D,N/A,N/A,Equipment Rental,37.5086244,-77.4289088
United Rentals - Richmond,N/A,Charles Drummond,(804) 288-0018,N/A,6520 W Broad St,Richmond,VA,#2F4A6D,N/A,N/A,Equipment Rental,37.5611575,-77.4677491
United Rentals - Virginia Beach,N/A,Jason Guida,(757) 974-0200,N/A,1344 Taylor Farm Rd,Virginia Beach,VA,#2F4A6D,N/A,N/A,Equipment Rental,36.7953786,-76.062974
United Rentals - State College,N/A,Jeffrey Knott,(814) 237-3325,N/A,1005 W College Ave,State College,PA,#2F4A6D,N/A,N/A,Equipment Rental,40.7863024,-77.8729262
United Rentals - Washington,N/A,Andrea Mueller,(724) 225-6200,N/A,1600 Jefferson Ave,Washington,PA,#2F4A6D,N/A,N/A,Equipment Rental,40.18844,-80.272922
United Rentals - Lancaster,N/A,John Aversa,(717) 393-8969,N/A,1550 Commerce Dr,Lancaster,PA,#2F4A6D,N/A,N/A,Equipment Rental,40.0788179,-76.3408597
United Rentals - Duncansville,N/A,Jeffrey Knott,(814) 696-4151,N/A,667 Broad St,Duncansville,PA,#2F4A6D,N/A,N/A,Equipment Rental,40.432727,-78.434995
United Rentals - Allentown,N/A,Michael Lynn,(610) 791-9870,N/A,2201 28th St SW,Allentown,PA,#2F4A6D,N/A,N/A,Equipment Rental,40.5620331,-75.4792481
United Rentals - Clairton,N/A,David Kline,(412) 226-6010,N/A,221 State St,Clairton,PA,#2F4A6D,N/A,N/A,Equipment Rental,40.2994363,-79.8762233
United Rentals - Oakdale,N/A,Ronald Cooper,(724) 695-9293,N/A,2000 Imperial Industrial Park,Oakdale,PA,#2F4A6D,N/A,N/A,Equipment Rental,40.403974,-80.189137
United Rentals - Butler,N/A,David Ferroni,(724) 586-5500,N/A,601 Pittsburgh Rd,Butler,PA,#2F4A6D,N/A,N/A,Equipment Rental,40.761935,-79.9239
United Rentals - Mechanicsburg,N/A,Larry Heagy,(717) 766-4713,N/A,825 Gettysburg Rd,Mechanicsburg,PA,#2F4A6D,N/A,N/A,Equipment Rental,40.204286,-76.9663647
United Rentals - Philadelphia,N/A,Michael Myers,(215) 744-4510,N/A,3880 E. Thompson St,Philadelphia,PA,#2F4A6D,N/A,N/A,Equipment Rental,39.9935363,-75.0872298
United Rentals - York,N/A,Justus Shearer,(717) 767-6448,N/A,4 Interchange Pl,York,PA,#2F4A6D,N/A,N/A,Equipment Rental,40.0190858,-76.7400479
United Rentals - Hanover Twp,N/A,Michael Biesecker,(570) 825-4786,N/A,2225 Sans Souci Parkway,Hanover Twp,PA,#2F4A6D,N/A,N/A,Equipment Rental,41.2097534,-75.9727864
United Rentals - Montoursville,N/A,Brian McLauchlin,(570) 601-4484,N/A,2968 Barneys Dr,Montoursville,PA,#2F4A6D,N/A,N/A,Equipment Rental,41.249579,-76.937153
United Rentals - Conshohocken,N/A,Kenneth Murphy,(610) 279-5777,N/A,1010 Conshohocken Rd,Conshohocken,PA,#2F4A6D,N/A,N/A,Equipment Rental,40.0665176,-75.3071928
United Rentals - Eddystone,N/A,Brian Bartoszek,(610) 497-2290,N/A,3000 Industrial Highway,Eddystone,PA,#2F4A6D,N/A,N/A,Equipment Rental,39.8583551,-75.3383968
United Rentals - West Chester,N/A,Louis Sordini,(610) 942-0482,N/A,800 E Virginia Ave,West Chester,PA,#2F4A6D,N/A,N/A,Equipment Rental,39.9729603,-75.5965936
United Rentals - Allentown,N/A,Wayne Lenhart,(484) 551-5000,N/A,211 Lloyd St,Allentown,PA,#2F4A6D,N/A,N/A,Equipment Rental,40.6342512,-75.4364747
United Rentals - Utica,N/A,Jason Schelle,(586) 731-7070,N/A,12000 23 Mile Road,Utica,MI,#2F4A6D,N/A,N/A,Equipment Rental,42.669683,-83.010221
United Rentals - Saginaw,N/A,Alex Payne,(989) 900-0730,N/A,2805 Diesel Park Dr,Saginaw,MI,#2F4A6D,N/A,N/A,Equipment Rental,43.414783,-83.929981
United Rentals - Negaunee,N/A,Bobby Johnson,(906) 225-7346,N/A,363 East US 41,Negaunee,MI,#2F4A6D,N/A,N/A,Equipment Rental,46.5063951,-87.607219
United Rentals - Romulus,N/A,Daniel Dewar,(734) 955-9291,N/A,13461 Huron River Drive,Romulus,MI,#2F4A6D,N/A,N/A,Equipment Rental,42.2050182,-83.404347
United Rentals - Grand Rapids,N/A,Daniel Flynn,(616) 364-7031,N/A,2122 Turner Ave. NW,Grand Rapids,MI,#2F4A6D,N/A,N/A,Equipment Rental,42.9955502,-85.6783149
United Rentals - Lansing,N/A,Richard Toaso,(517) 318-0729,N/A,3524 Canal Road,Lansing,MI,#2F4A6D,N/A,N/A,Equipment Rental,42.6961549,-84.663133
United Rentals - Huntington,N/A,Caleb Adams,(304) 429-1260,N/A,1501 Jackson Ave,Huntington,WV,#2F4A6D,N/A,N/A,Equipment Rental,38.406703,-82.479492
United Rentals-Bridgeport,N/A,Mark Garrison,304-848-3910,N/A,1978 Meadowbrook Rd.,Bridgeport,WV,#2F4A6D,N/A,N/A,Equipment Rental,39.3443908,-80.2991885
United Rentals- Beckley,N/A,David Vincent,304-255-6785,N/A,307 N Eisenhower Dr.,Beckley,WV,#2F4A6D,N/A,N/A,Equipment Rental,37.7842205,-81.169741
United Rentals-Cross Lanes,N/A,Steven Tankersley,304-776-7158,N/A,573 New Goff Mountain Rd.,Cross Lanes,WV,#2F4A6D,N/A,N/A,Equipment Rental,38.403825,-81.78992
United Rentals -Princeton,N/A,Albert Minter,304-487-3809,N/A,319 Oakvale Rd.,Princeton,WV,#2F4A6D,N/A,N/A,Equipment Rental,37.3664724,-81.0734009
Columbus Equipment Co,N/A,Corp. Office,614-443-6541,info@columbusequipment.com,2323 Performance Way,Columbus,OH,#2F4A6D,N/A,N/A,Equipment Rental,39.9180612,-82.9390957
Cadiz,N/A,N/A,740-942-8871,info@columbusequipment.com,290 Old Steubenville Pike,Cadiz,OH,#2F4A6D,N/A,N/A,Equipment Rental,40.2835859,-80.9841377
Cincinnati,N/A,N/A,513-771-3922,info@columbusequipment.com,712 Shepherd Ave.,Cincinnati ,OH,#2F4A6D,N/A,N/A,Equipment Rental,39.233699,-84.447081
Dayton,N/A,N/A,937-879-3154,info@columbusequipment.com,7570 New Carlisle Pike,Dayton,OH,#2F4A6D,N/A,N/A,Equipment Rental,39.858533,-84.060708
Massillon,N/A,N/A,330-833-2420,info@columbusequipment.com,2200 Venture Circle SE,Massillon,OH,#2F4A6D,N/A,N/A,Equipment Rental,40.7702344,-81.4783082
Piketon,N/A,N/A,740-289-3757,info@columbusequipment.com,3668 US Route 23 South,Piketon,OH,#2F4A6D,N/A,N/A,Equipment Rental,39.010704,-83.025986
Richfield,N/A,N/A,330-659-6681,info@columbusequipment.com,3942 Brecksville Rd.,Richfield,OH,#2F4A6D,N/A,N/A,Equipment Rental,41.2434784,-81.6379853
Perrysburg,N/A,N/A,419-872-7101,info@columbusequipment.com,12500 Williams Rd.,Perrysburg,OH,#2F4A6D,N/A,N/A,Equipment Rental,41.5291952,-83.6330293
Zanesville,N/A,N/A,740-455-4036,info@columbusequipment.com,818 Lee St.,Zanesville,OH,#2F4A6D,N/A,N/A,Equipment Rental,39.9440544,-82.0167139
ABC Equipment,N/A,N/A,N/A,N/A,N/A,N/A,N/A,#2F4A6D,N/A,N/A,Equipment Rental,39.7837304,-100.445882
Brunswick Store,N/A,N/A,330-220-4545,N/A,29 Pearl Rd.,Brunswick,OH,#2F4A6D,N/A,N/A,Equipment Rental,41.275001,-81.836159
Avon Store,N/A,N/A,440-934-7368,N/A,38525 Chester Rd.,Avon,OH,#2F4A6D,N/A,N/A,Equipment Rental,41.466892,-82.0539748
Sunbelt Rentals,N/A,N/A,N/A,N/A,N/A,N/A,N/A,#2F4A6D,N/A,N/A,Equipment Rental,39.7837304,-100.445882
Cleveland,N/A,N/A,216-415-3230,pcm361@sunbeltrentals.com,18200 S Waterloo Rd.,Cleveland,OH,#2F4A6D,N/A,N/A,Equipment Rental,41.5761302,-81.5522257
Peninsula,N/A,N/A,330-650-9090,pcm212@sunbeltrentals.com,5162 Akron Cleveland Rd.,Peninsula,OH,#2F4A6D,N/A,N/A,Equipment Rental,41.209137,-81.49291
Cortland,N/A,N/A,330-372-5100,pcm1080@sunbeltrentals.com,2229 State Route 5,Cortland,OH,#2F4A6D,N/A,N/A,Equipment Rental,41.285901,-80.767691
Cleveland,N/A,N/A,216-362-0300,pcm242@sunbeltrentals.com,13800 Brookpark Rd.,Cleveland,OH,#2F4A6D,N/A,N/A,Equipment Rental,41.4202435,-81.8408409
Akron,N/A,N/A,330-724-2100,pcm1110@sunbeltrentals.com,676 E Waterloo Rd.,Akron,OH,#2F4A6D,N/A,N/A,Equipment Rental,41.0293326,-81.501112
Hermitage,N/A,N/A,724-981-5800,pcm1875@sunbeltrentals.com,2976 E State St,Hermitage,PA,#2F4A6D,N/A,N/A,Equipment Rental,41.2329675,-80.4549403
Elyria,N/A,N/A,440-324-1855,pcm552@sunbeltrentals.com,6438 Lorain Blvd.,Elyria,OH,#2F4A6D,N/A,N/A,Equipment Rental,41.4087687,-82.1179296
Canton,N/A,N/A,330-305-5200,ethan.zerk@sunbeltrentals.com,2600 Harrison Ave NW,Canton,OH,#2F4A6D,N/A,N/A,Equipment Rental,40.824847,-81.3938562
Meadville,N/A,N/A,814-336-2336,pcm1481@sunbeltrentals.com,1355 S Main St.,Meadville,PA,#2F4A6D,N/A,N/A,Equipment Rental,41.6269473,-80.1543113
New Castle,N/A,N/A,724-658-2400,alex.kilgore@sunbeltrentals.com,3587 Clover Ln.,New Castle,PA,#2F4A6D,N/A,N/A,Equipment Rental,41.068617,-80.3626586
Warrendale,N/A,N/A,724-553-7335,shaun.byrne@sunbeltrentals.com,215 Thorn Hill Rd.,Warrendale,PA,#2F4A6D,N/A,N/A,Equipment Rental,40.6645968,-80.107269
Ontario,N/A,N/A,419-747-1000,pcm209@sunbeltrentals.com,2145 Walker Lake Rd.,Ontario,OH,#2F4A6D,N/A,N/A,Equipment Rental,40.7867288,-82.5912365
Pittsburgh,N/A,N/A,412-364-8630,pcm238@sunbeltrentals.com,5700 Grand Ave.,Pittsburgh,PA,#2F4A6D,N/A,N/A,Equipment Rental,40.475115,-80.025004
Imperial,N/A,N/A,724-227-3070,pcm1618@sunbeltrentals.com,40 Pattridge Ln.,Imperial,PA,#2F4A6D,N/A,N/A,Equipment Rental,40.434131,-80.252205
Atlantic Equipment,N/A,N/A,800-543-3350,info@atlanticeq.com,146 Railroad St.,Revere,MA,#2F4A6D,N/A,N/A,Equipment Rental,42.4026252,-71.0053091
Beltsville,N/A,N/A,240-621-1701,Cthompson@atlanticeq.com,"12104 Indian Creek Court, Suite H",Beltsville,MD,#2F4A6D,N/A,N/A,Equipment Rental,39.0570124,-76.8976164
Tampa,N/A,N/A,813-820-1181,wphaneuf@atlanticeq.com,4764 Distribution Dr Floor 1,Tampa,FL,#2F4A6D,N/A,N/A,Equipment Rental,27.9568194,-82.4062562
Orlando,N/A,N/A,800-331-2134,britchings@atlanticeq.com,1801 Acme St.,Orlando,FL,#2F4A6D,N/A,N/A,Equipment Rental,28.5279458,-81.4035852
Albany,N/A,N/A,518-729-5527,hedwards@atlanticeq.com,21 Railroad Ave Suit B ,Albany,NY,#2F4A6D,N/A,N/A,Equipment Rental,42.637973,-73.773496
The Shelly Company,N/A,N/A,N/A,info@shellyco.com,N/A,N/A,N/A,#2F5D50,N/A,N/A,Asphalt Plant,39.7837304,-100.445882
Alliance Rail Office,Aggregates,Hannah Lightener,(216) 618-1945,Hannah.Lightener@shellyco.com,2000 Beeson Street,Alliance,OH  44601,#2F5D51,N/A,N/A,Asphalt Plant,40.923507,-81.1345205
Athens Office/Facility,Ready Mix,Nick Hayek ,(740) 516-5651,N/A,5240 Hebbardsville Road,Athens,OH  45701,#2F5D52,N/A,N/A,Asphalt Plant,39.276233,-82.154096
Auglaize Office/Facility,"aggregates, aglime",Dale Mathew ,(419) 303-5431,N/A,13762 Road 179,Oakwood,OH  ,#2F5D53,N/A,N/A,Asphalt Plant,41.3579298,-81.4938912
Bedford Hts Office/Facility,"aggregates, aglime",Hannah Lightener,(216) 618-1945,N/A,5444 Perkins Road,Bedford Hts,OH  44146,#2F5D54,N/A,N/A,Asphalt Plant,41.4118291,-81.49848
Belle Center Office/Facilities,"aggregates, asphalt",Shawn Scott,(419) 466-8750,N/A,1558 County Road 105,Belle Center ,OH  43310,#2F5D55,N/A,N/A,Asphalt Plant,40.4771724,-83.7554978
Belpre Ofice/Facility,"Aggregates, Ready mix",Nick Hayek ,(740) 516-5651,N/A,1680 St. Rte. 618,Belpre,OH  45714,#2F5D56,N/A,N/A,Asphalt Plant,39.276468,-81.59541
Brunswick Office/Facility,Ready Mix,Hal Lane                 Jack Shear, (330) 801-9980     (330) 321-8095,N/A,1501 Industrial Pkwy South,Brunswick,OH  44212,#2F5D57,N/A,N/A,Asphalt Plant,41.104846,-81.4802493
Buckland Office/Facility,Asphalt,Dale Mathew  ,(419)303-5431,N/A,18429 Main Street Road,Buckland,OH  45895,#2F5D58,N/A,N/A,Asphalt Plant,40.6019715,-84.267797
Cadiz Office/Facility,Ready Mix, Brian Shepherd , (330) 607-0228,N/A,8799 Toot Road,Cadiz,OH  43907,#2F5D59,N/A,N/A,Asphalt Plant,40.3096337,-80.9890046
Cambridge Office/Facility,Ready Mix,Jeff Griffith , (740) 516-4330,N/A,61539 Southgate Pkwy,Cambridge,OH  43725,#2F5D60,N/A,N/A,Asphalt Plant,39.98994,-81.573332
Canton Aggregate,Aggregates,Hannah Lightener,(216) 618-1945,N/A,2905 Columbus Rd NE,Canton,OH  ,#2F5D61,N/A,N/A,Asphalt Plant,40.8382093,-81.3336829
Cardinal Office/Facility,Aggregates,Sam Schmitz ,(419) 392-2091,N/A,8026 Fremont Pike,Perrysburg,OH  43551,#2F5D62,N/A,N/A,Asphalt Plant,41.5276961,-83.5490097
Carey Office/Facility,"Aggregates, aglime",Shawn Scott,(419) 466-8750,N/A,1794 County Hwy 99,Carey,OH  ,#2F5D63,N/A,N/A,Asphalt Plant,40.963693,-83.368405
Carrollton Office/Facility,Ready Mix,Dale Mathew ,(419) 303-5431,N/A,1031 Kensington Road NE,Carrollton,OH  44615,#2F5D64,N/A,N/A,Asphalt Plant,40.590686,-81.080011
Celina Office/Facility,"Aggregates, aglime, asphalt",Dale Mathew ,(419) 303-5431,N/A,6430 Karch Road,Celina,OH  ,#2F5D65,N/A,N/A,Asphalt Plant,40.536297,-84.657119
Chillicothe Office/Facilities,"aggregates,            asphalt",Randy Grooms            Troy Stegner ,740) 775-3751                 (614) 437-2359,N/A,1177 Hopetown Road,Chillicothe,OH,#2F5D66,N/A,N/A,Asphalt Plant,39.38019,-82.985015
Circleville Office/Facility,Asphalt,Troy Stegner ,(614) 437-2359,N/A,24537 Canal Road,Circleville,OH ,#2F5D67,N/A,N/A,Asphalt Plant,39.561659,-82.986744
Clay Center Office/Facility,"Aggregates, aglime",Sam Schmitz ,(419) 392-2091,N/A,3800 North Bolander Road,Clay Center,OH  43408,#2F5D68,N/A,N/A,Asphalt Plant,41.5683054,-83.3684096
Cleveland Harrison Office/Facility,Asphalt,Jeremy Mantz,(330)-405-7677,N/A,650 Harrison Street,Cleveland,OH  44113,#2F5D69,N/A,N/A,Asphalt Plant,41.4897328,-81.688108
Cleveland West 150th Office Facility,Asphalt,Hannah Lightener,(216) 618-1945,N/A,4900 West 150th,Cleveland,OH  44135,#2F5D70,N/A,N/A,Asphalt Plant,41.419715,-81.802629
Cleveland West 3rd Office/Facility,N/A,Hannah Lightener,(216) 618-1945,N/A,2214 West 3rd Street,Cleveland,OH  44113,#2F5D71,N/A,N/A,Asphalt Plant,41.487059,-81.6846694
Columbus Area Hard Fill,Aggregates,Ed Beach ,(614) 437-2325,N/A,2506 Jackson Pike,Columbus,OH  43223,#2F5D72,N/A,N/A,Asphalt Plant,39.9056316,-83.0231797
Columbus Limestone Office/Facility,Aggregates,Jake Bush          Shawn Scott ,(740) 739-1654                  (419) 466-8750,N/A,3300 Jackson Pike,Grove City,OH  43123,#2F5D73,N/A,N/A,Asphalt Plant,39.8906923,-83.0270247
Copley Office/Facilities,"aggregates, asphalt",Hannah Lightener,(216) 618-1945,N/A,3350 Sawmill Road,Akron(Copley),OH  44321,#2F5D74,N/A,N/A,Asphalt Plant,40.6370081,-82.7776816
Coshocton Office/Facilities,Aggregates            Asphalt                   Ready mix,Todd Achauer                Troy Stegner            Jeff Griffith,(740) 819-3506      (614) 437-2359      (740) 516-4330,N/A,45500 County Road 23,Coshocton,OH  ,#2F5D75,N/A,N/A,Asphalt Plant,40.3036468,-81.9124627
Cumberland Limestone,"Aggregates, Aglime",Todd Achauer,(740)819-3506,N/A,53681 Spencer Road,Cumberland,OH  43732,#2F5D76,N/A,N/A,Asphalt Plant,39.8752776,-81.6747175
Derwent Office/Facility,Aggregates,Matt Ross              Todd Achauer,(740)253-0533         (740)819-3506,N/A,11167 Clay Pike Road,Derwent,OH  43733,#2F5D77,N/A,N/A,Asphalt Plant,39.9207812,-81.5364657
Dorr Street Office/Facility,Asphalt,Scott Rychener, (419) 466-5387,N/A,2435 Dorr Street,Toledo,OH  43607,#2F5D78,N/A,N/A,Asphalt Plant,41.652781,-83.6035935
Dover Office/Facility,Ready Mix,Brian Shepherd ,(330) 607-0228,N/A,142 South Tuscarawas Avenue,Dover,OH  44622,#2F5D79,N/A,N/A,Asphalt Plant,40.5164567,-81.4745411
Dover Ready Mix Concrete Div.,Division Office,N/A,(330) 364-4411,N/A,2301 Progress Steet,Dover,OH  44622,#2F5D80,N/A,N/A,Asphalt Plant,40.54251,-81.499899
East Fultonham Office/Facilities,Aggregates             asphalt                 aglime                ,Todd Achauer         Troy Stegner           sales,(740) 819-3506               (614) 437-2359              (740) 849-2338,todd.achauer@shellyco.com,6305 Saltillo Road,East Fultonham,OH   43735,#2F5D81,N/A,N/A,Asphalt Plant,39.8466267,-82.1308341
Findlay Office/Facility,Asphalt,Scott Rychener, (419) 466-5387,N/A,10148 County Road 313,Findlay,OH  ,#2F5D82,N/A,N/A,Asphalt Plant,41.080475,-83.6190236
Forest Office/Facility,"Aggregates, Aglime",Shawn Scott,(419) 466-8750,N/A,3798 St Rt 53,Forest,OH  45843,#2F5D83,N/A,N/A,Asphalt Plant,40.762875,-83.53628
Frank Road Office/Facility,Asphalt,Troy Stegner , (614) 437-2359,N/A,395 Frank Road,Columbus,OH ,#2F5D84,N/A,N/A,Asphalt Plant,39.9163817,-82.9999204
Gallipolis Office/Facility,Asphalt,Troy Stegner , (614) 437-2359,N/A,1248 St. Rte. 7,Gallipolis,OH ,#2F5D85,N/A,N/A,Asphalt Plant,38.817031,-82.187821
Genoa Office/Facility,Aggregates,Sam Schmitz ,(419) 392-2091,N/A,677 S. Genoa Clay Center Road,Genoa,OH  43430,#2F5D86,N/A,N/A,Asphalt Plant,41.5023231,-83.3582835
Hillsboro Office/Facility,Asphalt,Troy Stegner , (614) 437-2359,N/A,4301 Roush Road,Hillsboro,OH,#2F5D87,N/A,N/A,Asphalt Plant,39.188885,-83.728697
Kent Office/Facilities,"Aggregates, Asphalt",Hannah Lightener,(216) 618-1945,N/A,1181 Cherry Street,Kent,OH  44240,#2F5D88,N/A,N/A,Asphalt Plant,41.0077989,-81.6301224
Lancaster Office/Facilities,Aggregates        Asphalt,Ed Beach                Troy Stegner,(614) 437-2325            (614) 437-2359,N/A,3232 Logan-Lancaster Rd,Lancaster,OH,#2F5D89,N/A,N/A,Asphalt Plant,39.6928191,-82.581458
Lima Office/Facility,Asphalt,Dale Mathew ,(419) 303-5431,N/A,600 North Sugar Street,Lima,OH  45801,#2F5D90,N/A,N/A,Asphalt Plant,40.7679663,-84.0895407
Lockbourne Sand & Gravel,Aggregates,Jake Bush                Jay Garrison     , (614) 437-2325               (614) 437-2311,N/A,550 Rowe Road,Lockbourne,OH  43137,#2F5D91,N/A,N/A,Asphalt Plant,39.8158353,-82.9871861
Lucasville Office/Facility,Asphalt,Troy Stegner , (614) 437-2359,N/A,851 West Scioto Street,Lucasville,OH  ,#2F5D92,N/A,N/A,Asphalt Plant,38.877581,-83.004266
Marble Cliff Office/Facility,Aggregates        Asphalt,Jake Bush         Shawn Scott, (740) 739-1654   (419) 466-8750   ,N/A,2650 Old Dublin Road,Hilliard,OH  ,#2F5D93,N/A,N/A,Asphalt Plant,40.007963,-83.105879
Marietta Office/Facility,Aggregates            Ready Mix,Phil Parsons                       Nick Hayek, (740) 516-5614           (740) 516-5651,N/A,26650 St. Rte. 7,Marietta,OH  45750,#2F5D94,N/A,N/A,Asphalt Plant,39.380052,-81.400881
Massillon Office/Facility,"Aggregates, Asphalt",Hannah Lightener,(216) 618-1945,N/A,390 Warmington Road SW,Massillon,OH  44646,#2F5D95,N/A,N/A,Asphalt Plant,40.7516507,-81.5172635
Massillon Office/Facility,Ready Mix,Todd Eckert             Carl Edwards, (330) 962-6395                       (330) 321-8084,N/A,1817 Riverside Avenue NW,Massillon,OH  44647,#2F5D96,N/A,N/A,Asphalt Plant,40.8173537,-81.5301731
Maumee Office/Facilities,"Aggregate, Aglime         Asphalt            ReadyMix",Scott Rychener           Sam Schmitz             Sam Brauen ,(419) 466-5387            (419) 392-2091         (419)-341-3584,N/A,1360 Ford Street,Maumee,OH  43537,#2F5D97,N/A,N/A,Asphalt Plant,41.572116,-83.6746863
Maysville Limestone,Aggregates,Todd Achauer,(740)819-3506,N/A,6535 Old Town Road,Mount Perry,OH  43760,#2F5D98,N/A,N/A,Asphalt Plant,39.858763,-82.117273
Medina Office/Facilities,Aggregates          Ready mix,Ted Helton                Hal Lane                  Jack Shear ,(330) 603–6531            (330) 801-9980         (330) 321-8095,N/A,820 West Smith Road,Medina,OH  44256,#2F5D99,N/A,N/A,Asphalt Plant,41.1360749,-81.8852689
North Jackson Office/Facility,Asphalt,Hannah Lightener,(216) 618-1945,N/A,1661 North Bailey Road,North Jackson,OH  44451,#2F5D100,N/A,N/A,Asphalt Plant,41.115734,-80.887233
Noth Ridgeville Office/Facility,Ready Mix, Hal Lane                  Jack Shear ,(330) 801-9980         (330) 321-8095,N/A,7725 Race Road,North Ridgeville,OH  44035,#2F5D101,N/A,N/A,Asphalt Plant,41.373814,-82.044449
Ostrander Office/Facilities,Aggregates         Asphalt,Jake Bush                     Shawn Scott,(740) 739-1654        (419) 466-8750,N/A,8328 Watkins Road,Ostrander,OH  43061,#2F5D102,N/A,N/A,Asphalt Plant,40.2162031,-83.1748628
Peebles Office/Facility,Asphalt,Troy Stegner , (614) 437-2359,N/A,848 Plum Run Road,Peebles,OH  ,#2F5D103,N/A,N/A,Asphalt Plant,38.9501574,-83.3629003
Petersburg Office/Facility,Aggregates,Hannah Lightener,(216) 618-1945,N/A,13484 Youngstown-Pittsburgh Rd,Petersburg,OH  44454,#2F5D104,N/A,N/A,Asphalt Plant,40.9227408,-80.5351779
Piketon Office/Facility,Asphalt,Troy Stegner , (614) 437-2359,N/A,5732 Wakefield Mound Rd,Piketon,OH,#2F5D105,N/A,N/A,Asphalt Plant,39.044889,-83.020417
Portage Asphalt Office/Facility,Asphalt,Scott Rychener, (419) 466-5387,N/A,12570 Greensburg Pike,Portage,OH  43451,#2F5D106,N/A,N/A,Asphalt Plant,41.3114459,-83.6416429
Portage Quarry Office/Facility,"Aggregates, aglime",Sam Schmitz ,(419) 392-2091,N/A,11580 South Dixie Hwy,Portage,OH  43451,#2F5D107,N/A,N/A,Asphalt Plant,41.3182453,-83.6506916
Portland Office/Facility,Aggregates,Phil Parsons,(740) 516-5614,N/A,54301 McDade Road,Portland,OH,#2F5D108,N/A,N/A,Asphalt Plant,39.012986,-81.771475
Reedsville Office/Facility,Aggregates,Phil Parsons,(740) 516-5615,N/A,64584 St. Rte. 124,Reedsville,OH,#2F5D109,N/A,N/A,Asphalt Plant,39.097,-81.75067
Scioto Materials-St Louisville Ofc/Fac,Asphalt,Troy Stegner , (614) 437-2359,N/A,9134 Mt. Vernon Rd.,St Louisville,OH  43071,#2F5D110,N/A,N/A,Asphalt Plant,40.1706421,-82.4204842
Scioto Materials-Westerville Ofc/Fac,Asphalt,Troy Stegner , (614) 437-2359,N/A,6189 Westerville Rd.,Westerville,OH  ,#2F5D111,N/A,N/A,Asphalt Plant,40.095759,-82.92537
Scott Office/Facility,"Aggregates, Aglime",Dale Mathew ,(419) 303-5431,N/A,2364 Richey Road,Convoy,OH,#2F5D112,N/A,N/A,Asphalt Plant,40.969538,-84.648846
Shalersville Office/Facility,Aggregates,Jeremy Mantz ,(330)-405-7677,N/A,3943 Beck Road,Mantua,OH  44255,#2F5D113,N/A,N/A,Asphalt Plant,41.253513,-81.250568
South Bloomfield,Aggregates,Jake Bush                     Shawn Scott,(740) 739-1654        (419) 466-8750,N/A,1839 Weigand Road,Lockbourne,OH  43137,#2F5D114,N/A,N/A,Asphalt Plant,39.7515414,-82.9884885
Springfield Office/Facility,Asphalt,Shawn Scott,(419) 466-8750,N/A,4301 Suth Charleston Pike,Springfield,OH  45502,#2F5D115,N/A,N/A,Asphalt Plant,39.902452,-83.728506
St. Louisville Office/Facility,Aggregates,Jake Bush                     Shawn Scott,(740) 739-1654        (419) 466-8750,N/A,6824 Mt. Vernon Rd.,Newark,OH  ,#2F5D116,N/A,N/A,Asphalt Plant,40.0626929,-82.4069591
Stickney Avenue,Ready Mix,Sam Brauen ,(419)341-3584,N/A,4950 Stickney Avenue,Toledo,OH  43612,#2F5D117,N/A,N/A,Asphalt Plant,41.7071952,-83.5274757
Streetsboro Office/Facilities,"Aggreggates, Asphalt",Hannah Lightener,(216) 618-1945,N/A,8505 St. Rte. 14,Reynoldsburg,OH,#2F5D118,N/A,N/A,Asphalt Plant,39.967349,-82.821912
Tiltonsville Ready Mix Concredt,Ready Mix, Jeff Griffith,(740) 516-4330,N/A,202 Walden Avenue,Tiltonsville,OH  43963,#2F5D119,N/A,N/A,Asphalt Plant,40.1729358,-80.6965289
Twinsburg Office/Facility,Ready Mix,Todd Eckert ,(330) 962-6395,N/A,1516 Highland Road,Twinsburg,OH  44087,#2F5D120,N/A,N/A,Asphalt Plant,41.5650521,-81.5338774
Twinsburg Rail Office/Facility,Aggregates,Hannah Lightener,(216) 618-1945,N/A,8530 Boyle Pkwy,Twinsburg,OH,#2F5D121,N/A,N/A,Asphalt Plant,41.2985897,-81.4618845
West 130 Cleveland Rail Ofc/Fac,Aggregates,Jeremy Mantz,(330)-405-7677,N/A,4431 West 130th Street,Cleveland,OH,#2F5D122,N/A,N/A,Asphalt Plant,41.433524,-81.779855
Willow Island/Reno Ofc/Facility,Aggregates,Phil Parsons ,(740) 516-5614,N/A,30222 St. Rte. 7,Marietta,OH,#2F5D123,N/A,N/A,Asphalt Plant,39.348586,-81.36216
Woodville Asphalt Office/Facility,Asphalt,Scott Rychener ,419) 466-5387,N/A,677 Lime Road,Woodville,OH  43469,#2F5D124,N/A,N/A,Asphalt Plant,41.4610352,-83.36732
York Center Office/Facility,"Aggregates, Aglime",Shawn Scott ,(419) 466-8750,N/A,28855 St. Rte 739,West Mansfield,OH  ,#2F5D125,N/A,N/A,Asphalt Plant,40.414386,-83.452875
Zanesville Office/Facility,Ready Mix,Jeff Griffith ,(740) 516-4330,N/A,1835 West Main Street,Zanesville,OH  43701,#2F5D126,N/A,N/A,Asphalt Plant,39.9456017,-82.0298481
N/A,N/A,N/A,N/A,N/A,N/A,N/A,N/A,#2F5D127,N/A,N/A,Asphalt Plant,39.7837304,-100.445882
Northeast Paving Div. Eurovia Atlantic Coast,Asphalt,N/A,N/A,N/A,17 New Ludlow Road,Granby,MA  01033,#2F5D128,N/A,N/A,Asphalt Plant,42.2239764,-72.5443883
"All States Asphalt, Inc.",N/A,HQ,800-343-9620,info@asmg.com,325 Amherst Road,Sunderland,MA  01375,#2F5D129,N/A,N/A,Asphalt Plant,42.4493015,-72.5606988
"Peckham Industries, Inc",N/A,N/A,N/A,N/A,172 ospect Hill Rd. ,Brewster,NY  10509,#2F5D130,N/A,N/A,Asphalt Plant,41.428277,-73.545264
Northeast Asphalt,N/A,N/A,N/A,N/A,2500 Cold Spring Rd.,Appleton,WI  54914,#2F5D131,N/A,N/A,Asphalt Plant,44.2392129,-88.4855025
Tri-County Asphalt Materials,N/A,N/A,N/A,N/A,405 Andrews Avenue,Youngstown,OH ,#2F5D132,N/A,N/A,Asphalt Plant,41.102643,-80.638938
Allen Myers Locations:,N/A,N/A,N/A,N/A,"PO Box 1340, 1805 Berks Rd",Worcester,PA  19490,#2F5D133,Corporate ,N/A,Asphalt Plant,40.1808119,-75.333721
Aberdeen,"Asphalt, Aggregate",Scott Croney,443-506-9426,scott.croney@allanmyers.com,910 Old Philadelphia Rd,Abedeen,MD  21001,#2F5D134,Plant,N/A,Asphalt Plant,39.488071,-76.191878
Bishop,Asphalt,Michael Gygrynuk,302-218-6815,michael.gygrynuk@allanmyers.com,10031 Kepler Lane,Bishopville,MD  21813,#2F5D135,N/A,N/A,Asphalt Plant,38.4205986,-75.2189187
"Capital, DC",Asphalt,Rafael Gonzalez,571-643-5397,rafael.gonzalez@allanmyers.com,4901 Shepherd Pkwy SW,Washington DC,DC  20032,#2F5D136,N/A,N/A,Asphalt Plant,38.815933,-77.018271
Cedar Hill,Quarry,Sandy Jones           Joe Buckley,443-571-0752           610-222-3178,sandy.jones@allanmyers.com Joe.Buckley@allanmyers.com,219 Quarry Road,Peach Bottom,PA  17563,#2F5D137,N/A,N/A,Asphalt Plant,39.7313554,-76.1386838
Chesapeake,Asphalt,Ricky Thomas   Mke Menkins,757-582-8519            610-560-4923,Ricky.Thomas@allanmyers.com,5300 Bainbridge Blvd,Chesapeake,VA  23320,#2F5D138,N/A,N/A,Asphalt Plant,36.7429853,-76.2931504
Coatesville,Asphalt,Greg Atkinson        Mike Menkins,610-560-7912          610-560-4923,greg.atkinson@allanmyers.com,410 Doe Run Rd.,Coatesville,PA  19320,#2F5D139,N/A,N/A,Asphalt Plant,39.9624788,-75.8402324
Delmar,Asphalt,Michael Gygrnuk   Mike Menkins,302-218-6815        610-560-4923,michael.gygrynuk@allanmyers.com,8788 Patton Road,Delmar,MD  21875,#2F5D140,N/A,N/A,Asphalt Plant,39.5670548,-76.4571631
Devault,Asphalt ,Greg Atkinson        Mike Menkins,610-560-7912          610-560-4923,greg.atkinson@allanmyers.com,"40456 State Rd, Rte 29 and Charlestown Rd",Devault,PA  19432,#2F5D141,N/A,N/A,Asphalt Plant,40.116177,-75.545191
Dover,Asphalt,Michael Gygrnuk   Mike Menkins,302-218-6815        610-560-4923,michael.gygrynuk@allanmyers.com,3700 Bay Road,Dover,DE  19902,#2F5D142,N/A,N/A,Asphalt Plant,38.9883994,-75.445637
Elk Mills,Quarry,Jesse Betts               Joe Buckley,484-250-0378       610-222-3178,Jesse.Betts@allanmyers.com             Joe.Buckley@allanmyers.com,896 Elk Mill Road,Elk Mills,MD  21291,#2F5D143,Quarry,N/A,Asphalt Plant,39.339017,-76.72173
Fredericksburg,Asphalt,Mike Purkey,804370-7770,Mike.Purkey@AllanMyers.com,382 Kings Hwy,Falmouth,VA  22405,#2F5D144,N/A,N/A,Asphalt Plant,38.2861257,-77.4440841
Georgetown,Asphalt,Michael Gygrnuk   Mike Menkins,302-218-6815        610-560-4923,michael.gygrynuk@allanmyers.com,22351 Joseph Lane,Georgetown,DE  19947,#2F5D145,N/A,N/A,Asphalt Plant,38.6695424,-75.1976405
Harleysville,Asphalt,Robert Boland       Greg Atkinson,484-678-9010     610-476-0680,robert.boland@allanmyers.com               greg.atkinson@allanmyers.com,460 Indian Creek Rd.,Harleysville,PA  19438,#2F5D146,N/A,N/A,Asphalt Plant,40.2800795,-75.4048079
Jessup,Asphalt,Scott Croney         Mike Menkins,443-506-9426            610-560-4923,scott.croney@allanmyers.com,8375 Dorsey Run Road,Jessup,MD  20794,#2F5D147,N/A,N/A,Asphalt Plant,39.1420938,-76.7927037
Leesburg,Asphalt,Rafael Gonzalez         Michael D. Menkins,571-643-5397         610-960-3151,Rafael.gonzalez@allanmyers.com,42050 Cochran Mill Road,Leesburg,VA  20175,#2F5D148,N/A,N/A,Asphalt Plant,39.0750965,-77.5260508
New Kent,Asphalt,Glenn Muse        Mike Menkins,804-432-6662             610-560-4923,glenn.muse@allanmyers.com,7701 Parham Landing Rd,West Point,VA  23181,#2F5D149,N/A,N/A,Asphalt Plant,37.5121901,-76.8579092
North East,Asphalt,Brian Hart             Mike Menkins,410-746-6512            610-560-4923,brian.hart@allanmyers.com,284 Quarry Road,Elkton,MD  21921,#2F5D150,N/A,N/A,Asphalt Plant,39.638264,-75.933498
Paradise,Asphalt & Quarry,Greg Atkinson    Mike Menkins,610-476-0680            610-560-4973,greg.atkinson@allanmyers.com,47 Mcllvain Road,Paradise,PA  17562,#2F5D151,Quarry,N/A,Asphalt Plant,39.996298,-76.09022
Petersburg,Asphalt,Glenn Muse        Mike Menkins,804-432-6662             610-560-4923,glenn.muse@allanmyers.com,2070 Bessemer Road,Petersburg,VA  23805,#2F5D152,N/A,N/A,Asphalt Plant,37.1794845,-77.4190988
Powhatan,Asphalt,Mike Purkey         Mike Menkins,804-370-7770       610-560-4923,Mike.Purkey@AllanMyers.com,1920 Anderson Hwy,Powhatan,VA  23139,#2F5D153,N/A,N/A,Asphalt Plant,37.5173322,-77.7720834
Reading,Asphalt,Robert Boland       Greg Atkinson,484-678-9010     610-476-0680,robert.boland@allanmyers.com               greg.atkinson@allanmyers.com,5662 Leesport Avenue,Reading,PA  19612,#2F5D154,N/A,N/A,Asphalt Plant,40.4209094,-75.9290616
Rockville,Asphalt,Mike Purkey         Mike Menkins,804-370-7770       610-560-4923,Mike.Purkey@AllanMyers.com,2115 Ashland Road,Rockville,VA  23146,#2F5D155,N/A,N/A,Asphalt Plant,37.6988836,-77.6558178
Wakefield,Asphalt,Glenn Muse,804-432-6662,Glenn.Muse@AllanMyers.com,33080 General Mahone Blvd,Wakefield,VA  23888,#2F5D156,N/A,N/A,Asphalt Plant,36.9380064,-76.9407897
Wilmington,Asphalt,Brian Hart             Mike Menkins,410-746-6512       610-560-4923,brian.hart@allanmyers.com,1230 Railcar Ave.,Wilmington,DE  19802,#2F5D157,N/A,N/A,Asphalt Plant,39.741988,-75.532928
"Commercial Asphalt Supply, Inc.",Asphalt,N/A,N/A,N/A,161 Plain Grove Road,Slippery Rock,PA  16057,#2F5D158,Plant,N/A,Asphalt Plant,41.0361128,-80.1441242
Shields Asphalt Paving,Asphalt,N/A,N/A,N/A,161 Plain Grove Road,Slippery Rock,PA  16057,#2F5D159,Plant,N/A,Asphalt Plant,41.0361128,-80.1441242
D & R Supply,Asphalt,N/A,N/A,N/A,18228 Fulton Road,Marshallville,OH  44645,#2F5D160,Plant,N/A,Asphalt Plant,40.8976658,-81.663354
Rupp Construction,Sand and gravel,N/A,N/A,N/A,18228 Fulton Road,Marshallville,OH  44645,#2F5D161,Plant,N/A,Asphalt Plant,40.8976658,-81.663354
HEI WAY,Asphalt,N/A,N/A,info@hei-way.com,290 North Pike Road ,Sarver, PA 16055,#2F5D162,Plant,N/A,Asphalt Plant,40.7485109,-79.7783043
Cranberry Supply,Asphalt,N/A,N/A,N/A,8020 Rowan Road,Cranberry Twp,PA  16066,#2F5D163,Distributor,N/A,Asphalt Plant,40.703995,-80.099785
"Building Products, Inc.",Asphalt,N/A,N/A,sales@buildingprods.com,136 23rd Street,Sharpsburg,PA 15215,#2F5D164,Distributor,N/A,Asphalt Plant,40.494657,-79.913984
Georges Supply,Asphalt,N/A,N/A,N/A,3101 Brownsville Road,South Park Twp,PA  15129,#2F5D165,Distributor,N/A,Asphalt Plant,40.284383,-79.999204
Kiefer Coal & Supply Co,Asphalt,N/A,N/A,N/A,5088 W. Library Ave.,Bethel Park,PA 15102,#2F5D166,Distributor,N/A,Asphalt Plant,40.333839,-80.031257
Russell Brothers Building Supply,Asphalt,N/A,N/A,N/A,101 West Wylie Avenue,Washington,PA  15301,#2F5D167,Distributor,N/A,Asphalt Plant,40.1817945,-80.2660626
Rt 40 Aggregates & Feed,Asphalt,N/A,N/A,rt40supply@gmail.com,800 National Pike West,Brownsille,PA  15417,#2F5D168,Distributor,N/A,Asphalt Plant,40.04285,-79.96517
Snyder Excavating,Asphalt,N/A,N/A,N/A,2824 William Penn Avenue,Johnstown,PA  15909,#2F5D169,Distributor,N/A,Asphalt Plant,40.414151,-78.8605839
James W Gilliland Hauling,Asphalt,N/A,N/A,N/A,77 Auction Road,New Wilmington,PA  16142,#2F5D170,Distributor,N/A,Asphalt Plant,41.1317276,-80.329917
Berkey Excavating,Asphalt,Dave and Kevin Berkey,N/A,wemovetheearth@aol.com,524 Berkey Road,Boxwell,PA  15531,#2F5D171,Distributor,N/A,Asphalt Plant,40.1929501,-79.0455735
McDonald Sand and Gravel,Asphalt,N/A,N/A,N/A,12559 Sanford Road,West Springfield,PA  16443,#2F5D172,Distributor,N/A,Asphalt Plant,41.9569157,-80.4274534
"William Dickson Industries, Inc.",Asphalt,N/A,N/A,contact@williamdicksonindustries.com,133 Locust Road,St. Mary's,PA  15857,#2F5D173,Distributor,N/A,Asphalt Plant,41.423174,-78.5536253
"William Dickson Industries, Inc.",Asphalt,N/A,N/A,N/A,113 Lee Valley Road,Derry,PA  15627,#2F5D174,Distributor,N/A,Asphalt Plant,40.36257,-79.385229
A. Marinelli & Sons,Asphalt,N/A,N/A,hello@marinelliandsons.com,Township Line Road,Darby,PA  19082,#2F5D175,Distributor,N/A,Asphalt Plant,39.9747413,-75.2815412
Allied Landscape Supply,Asphalt,N/A,N/A,N/A,1752 Limekiln Pike,Dresher,PA  19025,#2F5D176,Distributor,N/A,Asphalt Plant,40.1405062,-75.1661444
Allied Landscape Supply,Asphalt,N/A,N/A,N/A,200 Limerick Center Rd.,Limerick,PA 19468,#2F5D177,N/A,N/A,Asphalt Plant,40.2270033,-75.5485317
Allied Landscape Supply,Asphalt,N/A,N/A,N/A,1425 E . Schuylkill Rd. Rt 724,Pottstown,PA 19465,#2F5D178,N/A,N/A,Asphalt Plant,40.22774,-75.624262
Allied Landscape Supply,Asphalt,N/A,N/A,N/A,31 E 1st Ave.,Parkesburg,PA 19365,#2F5D179,N/A,N/A,Asphalt Plant,39.9603811,-75.9120653
D & S Hauling-Stone Supply Yard,Asphalt,N/A,N/A,N/A,"191 Rte. 739, Dingmans Ferry", Dingmans Ferry,PA  18328,#2F5D180,Distributor,N/A,Asphalt Plant,41.28664,-74.94041
JNA Materials,Asphalt,N/A,N/A,N/A,7147 Camphill Road,Whitemarsh,PA  19034,#2F5D181,Distributor,N/A,Asphalt Plant,40.1415878,-75.1807734
M&W Precast & Construction,Asphalt,N/A,N/A,N/A,210 Durham Road,Ottsville,PA  18942,#2F5D182,Distributor,N/A,Asphalt Plant,40.4693437,-75.1578401
"Petke Construction Co., Inc",Asphalt,N/A,N/A,petkes@petkeconstruction.com,2031 Jennie Scher Road,Richmond,VA  23232,#2F5D183,Distributor,N/A,Asphalt Plant,37.5266008,-77.3932344
Martin Marietta,Asphalt,N/A,N/A,N/A,2725 Capital Dr.,Colorado Springs,CO 80915,#2F5D184,Plant,N/A,Asphalt Plant,38.8711387,-104.6756418
Martin Marietta,Asphalt,N/A,N/A,N/A,925 North 35th Avenue,Greeley,CO 80631,#2F5D185,Plant,N/A,Asphalt Plant,40.4342415,-104.7350261
S&K Asphalt Concrete,Asphalt,N/A,N/A,info@skasphaltconcrete.com,N/A,Akron,Ohio,#2F5D186,N/A,N/A,Asphalt Plant,41.083064,-81.518485
Asphalt Materials Inc.,N/A,N/A,N/A,N/A,N/A,N/A,N/A,#2F5D187,N/A,N/A,Asphalt Plant,39.7837304,-100.445882
Columbus,Asphalt,Rich Cross,614-274-6767,rcross@asphalt-materials.com,3737 Fisher Rd.,Columbus,Ohio,#2F5D188,Plant,N/A,Asphalt Plant,39.967385,-83.1008132
Edison,Asphalt,David Neal,N/A,Dneal@asphalt-materials.com,219 1/2 West High Street P.O. Box 247,Edison,Ohio,#2F5D189,Plant,N/A,Asphalt Plant,40.5575994,-82.8676582
Oregon,Asphalt,Douglas Kuiper,N/A,dkuiper@asphalt-materials.com,940 N. Wynn Rd.,Oregon,Ohio,#2F5D190,Plant,N/A,Asphalt Plant,41.6696978,-83.4293397
Marietta,Asphalt,Brian Lawrence,N/A,bryan.lawrence@asphalt-materials .com,13925 State Road 7,Marietta,Ohio,#2F5D191,Plant,N/A,Asphalt Plant,39.392139,-81.404578
HQ,Main Office,N/A,N/A,marketing@asphalt-materials.com,8720 Robbins Rd.,Indianapolis,Indiana,#2F5D192,N/A,N/A,Asphalt Plant,39.9126531,-86.2547057
Indianapolis,Asphalt,Scott Hippert,317-550-9122,shippert@asphalt-materials.com,4902 W. 86th St.,Indianapolis,Indiana,#2F5D193,Plant,N/A,Asphalt Plant,39.9114669,-86.2419147
Warsaw,Asphalt,Larry Chevalier,N/A,lchevalier@asphalt-materials.com,2820 E. Durbin St. ,Warsaw,Indiana,#2F5D194,Plant,N/A,Asphalt Plant,41.234109,-85.821409
Laketon Refining Corp.,Asphalt,Ike Denton,260-568-1000,ike.denton@asphalt-materials.com,2784 Lukens Lake Rd.,Laketon,Indiana,#2F5D195,Plant,N/A,Asphalt Plant,40.971298,-85.842445
Emulsicoat Mt. Vernon,N/A,Jeremy Dilley,217-240-0216,jdilley@asphalt-materials.com,1200 Old Hwy 69 S.,Mount Vernon,Indiana,#2F5D196,Plant,N/A,Asphalt Plant,37.921695,-87.944586
Kokosing Materials,N/A,N/A,N/A,N/A,N/A,N/A,N/A,#2F5D197,N/A,N/A,Asphalt Plant,39.7837304,-100.445882
Woodville Plant,Asphalt,N/A,419-849-2456,kmisalesteam@kokosing.biz,875 East main St.,Woodville,Ohio,#2F5D198,Plant,N/A,Asphalt Plant,41.4466292,-83.3539339
Sheffield Plant ,Asphalt,N/A,440-277-9740,kmisalesteam@kokosing.biz,4140 East River Rd.,Sheffield,Ohio,#2F5D199,Plant,N/A,Asphalt Plant,41.4410893,-82.098136
Columbia Station Plant,Asphalt,N/A,440-236-3869,kmisalesteam@kokosing.biz,13315 Hawke Rd.,Columbia Station,Ohio,#2F5D200,Plant,N/A,Asphalt Plant,41.31311,-81.94681
Cleveland Plant,Asphalt,N/A,216-441-8892,kmisalesteam@kokosing.biz,3000 Independence Rd.,Cleveland,Ohio,#2F5D201,Plant,N/A,Asphalt Plant,41.4773303,-81.6677042
Garfield Heights Plant,Asphalt,N/A,216-587-4900,kmisalesteam@kokosing.biz,13700 McCracken Rd.,Cleveland,Ohio,#2F5D202,Plant,N/A,Asphalt Plant,41.4251317,-81.5717076
East Claridon Plant,Asphalt,N/A,440-635-5063,kmisalesteam@kokosing.biz,14948 Mayfield Rd.,East Claridon,Ohio,#2F5D203,Plant,N/A,Asphalt Plant,41.5336352,-81.1082765
Grand River Plant,Asphalt,N/A,419-849-9999,kmisalesteam@kokosing.biz,15 Williams St.,Grand River,Ohio,#2F5D204,Plant,N/A,Asphalt Plant,41.745795,-81.2854568
Ashtabula Plant,Asphalt,N/A,N/A,kmisalesteam@kokosing.biz,1601 E. 21st St.,Ashtabula,Ohio,#2F5D205,Plant,N/A,Asphalt Plant,41.8893239,-80.7777463
Medina Plant,Asphalt,N/A,330-721-2775,kmisalesteam@kokosing.biz,310 North State Rd.,Medina,Ohio,#2F5D206,Plant,N/A,Asphalt Plant,41.1435517,-81.8782617
Shalersville Plant,Asphalt,N/A,330-274-2282,kmisalesteam@kokosing.biz,3486 Frost Rd.,Mantua,Ohio,#2F5D207,Plant,N/A,Asphalt Plant,41.2629127,-81.2637611
Tallmadge Plant,Asphalt,N/A,330-968-3800,kmisalesteam@kokosing.biz,741 Tallmadge Rd.,Kent,Ohio,#2F5D208,Plant,N/A,Asphalt Plant,41.1000396,-81.3518109
Wooster Plant,Asphalt,N/A,330-263-4168,kmisalesteam@kokosing.biz,1516 Timken Rd.,Wooster,Ohio,#2F5D209,Plant,N/A,Asphalt Plant,40.7800475,-81.9390884
Upper Sandusky Plant,Asphalt,N/A,419-209-0693,kmisalesteam@kokosing.biz,6326 County Highway 61,Upper Sandusky,Ohio,#2F5D210,Plant,N/A,Asphalt Plant,40.782033,-83.235399
Mansfield Plant,Asphalt,N/A,419-526-2852,kmisalesteam@kokosing.biz,46 E. Longview Ave.,Mansfield,Ohio,#2F5D211,Plant,N/A,Asphalt Plant,40.776982,-82.512979
Fredericktown Plant,Asphalt,N/A,740-694-5872,kmisalesteam@kokosing.biz,11624 Hyatt Rd.,Fredericktown,Ohio,#2F5D212,Plant,N/A,Asphalt Plant,40.457638,-82.533697
Marengo Plant,Asphalt,N/A,N/A,kmisalesteam@kokosing.biz,4178 Township Rd. 256,Marengo,Ohio,#2F5D213,Plant,N/A,Asphalt Plant,40.301619,-83.918673
St. Louisville Plant,Asphalt,N/A,740-745-3341,kmisalesteam@kokosing.biz,9134 Mount Vernon Rd.,St. Louisville,Ohio,#2F5D214,Plant,N/A,Asphalt Plant,40.1706421,-82.4204842
Westerville Plant,Asphalt,N/A,614-891-5090,kmisalesteam@kokosing.biz,6187 Westerville Rd.,Westerville,Ohio,#2F5D215,Plant,N/A,Asphalt Plant,40.095759,-82.92537
Columbus Plant,Asphalt,N/A,614-491-1199,kmisalesteam@kokosing.biz,4755 South High St.,Columbus,Ohio,#2F5D216,Plant,N/A,Asphalt Plant,39.86257,-83.004383
Osborne Companies,Asphalt,N/A,440-352-2254,N/A,6 Coast Guard Rd.,Painesville,Ohio,#2F5D217,N/A,N/A,Asphalt Plant,41.7567954,-81.2834572
National Lime and Stone Co,N/A,N/A,N/A,N/A,N/A,N/A,N/A,#2F5D218,N/A,N/A,Asphalt Plant,39.7837304,-100.445882
Cambridge Plant,Ashpalt,Jody Barwick,330-415-6456,jbarwick@natlime.com,61145 Shaw Rd.,Cambridge,Ohio,#2F5D219,Plant,N/A,Asphalt Plant,39.990845,-81.677688
Cadiz Plant,Ashpalt,Chris Dusenberry,330-600-1494,cdusenberry@natlime.com,80870 Unionvale Kenwood rd.,Cadiz,Ohio,#2F5D220,Plant,N/A,Asphalt Plant,40.3184963,-80.9815608
Martins Ferry Plant,Ashpalt,Jody Barwick,330-415-6456,jbarwick@natlime.com,1601 N 1st St.,Martins Ferry,Ohio,#2F5D221,Plant,N/A,Asphalt Plant,40.1016071,-80.7119669
Empire Plant,Ashpalt,Chris Dusenberry,330-600-1494,cdusenberry@natlime.com,1422 Co Hwy 7F,Toronto,Ohio,#2F5D222,Plant,N/A,Asphalt Plant,40.472989,-80.603202
Jurgensen Companies,N/A,N/A,N/A,N/A,N/A,N/A,N/A,#2F5D223,N/A,N/A,Asphalt Plant,39.7837304,-100.445882
HQ,Main Office,N/A,N/A,N/A,11641 Mosteller Rd.,Cincinnati,Ohio,#2F5D224,N/A,N/A,Asphalt Plant,39.285894,-84.429337
Walls Asphalt Manufacturing,Asphalt,N/A,N/A,N/A,3495 Hollanburg-Sampson Rd.,Greenville,Ohio,#2F5D225,Plant,N/A,Asphalt Plant,39.98954,-84.61374
Valley Asphalt Corp.,Asphalt,N/A,N/A,N/A,250 Dye Mill Rd.,Troy ,Ohio,#2F5D226,Plant,N/A,Asphalt Plant,40.0187093,-84.1955383
Walls Asphalt Manufacturing,Asphalt,N/A,N/A,N/A,9843 Dayton-Greenville Pike,Brookville,Ohio,#2F5D227,Plant,N/A,Asphalt Plant,39.88742,-84.387661
Valley Asphalt Corp.,Asphalt,N/A,N/A,N/A,1901 Dryden Rd.,Dayton,Ohio,#2F5D228,Plant,N/A,Asphalt Plant,39.7323793,-84.2156422
Valley Asphalt Corp.,Asphalt,N/A,N/A,N/A,1337 Dayton Xenia Rd.,Xenia,Ohio,#2F5D229,Plant,N/A,Asphalt Plant,39.6989706,-83.9660268
Valley Asphalt Corp.,Asphalt,N/A,N/A,N/A,1903 Old US Rt 35 SE,Washington CH,Ohio,#2F5D230,Plant,N/A,Asphalt Plant,40.89284,-80.760675
Valley Asphalt Corp.,Asphalt,N/A,N/A,N/A,228 Melvin Rd.,Wilmington,Ohio,#2F5D231,Plant,N/A,Asphalt Plant,39.472735,-83.716104
Valley Asphalt Corp.,Asphalt,N/A,N/A,N/A,309 Industrial Dr.,Franklin,Ohio,#2F5D232,Plant,N/A,Asphalt Plant,39.5353457,-84.2986076
Valley Asphalt Corp.,Asphalt,N/A,N/A,N/A,581 N. Garver Rd.,Monroe,Ohio,#2F5D233,Plant,N/A,Asphalt Plant,39.440156,-84.338271
Valley Asphalt Corp.,Asphalt,N/A,N/A,N/A,4850 Stubbs Mill Rd.,Morrow ,Ohio,#2F5D234,Plant,N/A,Asphalt Plant,39.364537,-84.172632
Valley Asphalt Corp.,Asphalt,N/A,N/A,N/A,3910 Kraus Lane ,Ross,Ohio,#2F5D235,Plant,N/A,Asphalt Plant,39.3197656,-84.6355391
Hot Mix Inc.,Asphalt,N/A,N/A,N/A,992 S. County Rd. 800 East,Greenburg,Indiana,#2F5D236,N/A,N/A,Asphalt Plant,38.120539,-87.291394
Valley Asphalt Corp.,Asphalt,N/A,N/A,N/A,5073 Kilby rd.,Cleves,Ohio,#2F5D237,Plant,N/A,Asphalt Plant,39.190066,-84.778878
Valley Asphalt Corp.,Asphalt,N/A,N/A,N/A,7940 Main St.,Newtown ,Ohio,#2F5D238,Plant,N/A,Asphalt Plant,39.1241259,-84.3318967
Valley Asphalt Corp.,Asphalt,N/A,N/A,N/A,612 W. Mehring Way,Cincinnati,Ohio,#2F5D239,Plant,N/A,Asphalt Plant,39.0944515,-84.520623
Eaton Asphalt Paving,Asphalt,N/A,N/A,N/A,1075 Eaton Dr.,Covington,Kentucky,#2F5D240,Plant,N/A,Asphalt Plant,39.029915,-84.532914
Valley Asphalt Corp.,Asphalt,N/A,N/A,N/A,14722 Bodman Rd.,Mt. Orab,Ohio,#2F5D241,Plant,N/A,Asphalt Plant,39.042949,-83.9663
RW Sidley,N/A,N/A,330-793-7374,N/A,N/A,Youngstown,OH,#9B5A2E,N/A,N/A,Stone Yard,41.1035786,-80.6520161
Painesville,N/A,N/A,440-352-9343,N/A,436 Casement Ave.,Painesville,OH,#9B5A2E,N/A,N/A,Stone Yard,41.7380009,-81.2280428
Thompson,N/A,N/A,440-298-3232,N/A,7123 Madison Rd.,Thompson,OH,#9B5A2E,N/A,N/A,Stone Yard,41.6732325,-81.0446989
Madison,N/A,N/A,440-428-4500,N/A,4493 Madison Rd.,Madison,OH,#9B5A2E,N/A,N/A,Stone Yard,41.7504773,-81.0469354
Youngwood (Precast Plant),N/A,N/A,724-755-0205,N/A,88 East Hillis St.,Youngwood,PA,#9B5A2E,Plant,N/A,Stone Yard,40.2314855,-79.5757639
Girard,N/A,N/A,330-545-1964,N/A,200 Mill St.,Girard,OH,#9B5A2E,N/A,N/A,Stone Yard,41.149594,-80.707371
Struthers,N/A,N/A,330-750-1661,N/A,395 Lowellville Rd.,Struthers,OH,#9B5A2E,N/A,N/A,Stone Yard,41.0425811,-80.554469
Barnesville (Whitco Supply),N/A,N/A,740-619-0021,N/A,37100 Jeru West Dr.,Barnesville,OH,#9B5A2E,N/A,N/A,Stone Yard,38.842034,-82.245818
Williamsport (Whitco Supply),N/A,N/A,570-601-4645,N/A,2906 Reach  Rd.,Williamsport,PA,#9B5A2E,N/A,N/A,Stone Yard,41.2263802,-77.0707106
Towanda,N/A,N/A,570-265-8543,N/A,330 Wickwire Way,Towanda,PA,#9B5A2E,N/A,N/A,Stone Yard,41.762834,-76.4308987
Washington,N/A,N/A,724-225-8805,N/A,5 Grable Rd.,Washington,PA,#9B5A2E,N/A,N/A,Stone Yard,40.031441,-80.1111374
URVI Enterprise LLC,N/A,N/A,N/A,nayan.urvienterprise@gmail.com,521 W Main St.,Millville ,NJ,#9B5A2E,N/A,N/A,Stone Yard,39.396727,-75.051586
"GCP Applied Technologies, Inc.",N/A,HQ,1-877-423-6491,Customersolutions.na@gcpat.com,2325 Lakeview Parkway Suite 475,Alpharetta,GA,#9B5A2E,N/A,N/A,Stone Yard,34.0576646,-84.2917107
Plasti-Chemie North America LLC,N/A,Volkmar Lull,305-336-7635,volkmar.lull@plasti-chemie-america.com,400 5th Ave. S Suite 301,Naples,FL,#9B5A2E,N/A,N/A,Stone Yard,26.1409531,-81.8016172
"W&P, LLC",N/A,Thad Pearson (Sales),601-913-9796,tpearson@wandpllc.com,"6242 US Hwy 98, Ste 60",Hattiesburg,MS,#9B5A2E,N/A,N/A,Stone Yard,31.319492,-89.394177
Duraamen Engineered Products,N/A,N/A,1-212-386-7609,victo@duraamen.com,116 W 23rd St.,New York,NY,#9B5A2E,N/A,N/A,Stone Yard,40.7520732,-73.3477444
Pillar Aggregates LLC,N/A,N/A,303-536-7429,sales@pillaraggregates.com,10701 E 120th Ave,Henderson,CO,#9B5A2E,N/A,N/A,Stone Yard,39.9144148,-104.8578913
American Natural Stone & Supply,N/A,N/A,N/A,info@americannaturalstone.com,1004 Medina Road,Medina,OH,#9B5A2E,N/A,N/A,Stone Yard,41.1360325,-81.7238966
Kelly Supply Co.,N/A,N/A,N/A,N/A,"11622 OH-44, ",Mantua,OH  44255,#9B5A2E,N/A,N/A,Stone Yard,41.286694,-81.229132
Stone Centers Of Ohio,N/A,N/A,N/A,info@stonecenters.com,1736 McKinley ,Columbus,OH  43222,#9B5A2E,N/A,N/A,Stone Yard,39.9642046,-83.0481508
Stone Centers Of Ohio,N/A,N/A,N/A,info@stonecenters.com,4820 Stafford St.,Cincinnati,OH  45227,#9B5A2E,N/A,N/A,Stone Yard,39.1580859,-84.3852569
Rock Solid Cut Stone & Supply,N/A,N/A,N/A,N/A,12989 Market Avenue N. Unit A,Hartville,OH  44632,#9B5A2E,N/A,N/A,Stone Yard,40.9438609,-81.3602866
Northeast Ohio Stone,N/A,N/A,330-506-2876,N/A,5690 W Liberty St,Hubbard,OH,#9B5A2E,N/A,N/A,Stone Yard,41.1582254,-80.6073977
Masonry Materials Plus,N/A,N/A,330-744-7587,N/A,Willow Street ,Youngstown,OH,#9B5A2E,N/A,N/A,Stone Yard,41.1107097,-80.6338973
ACME,Stone,N/A,330-758-2313,sales@theacmecompany.com,9495 E. Harvard Blvd. ,Youngstown,OH,#9B5A2E,N/A,N/A,Stone Yard,40.981465,-80.650707
4PL Solutions,N/A,N/A,330-349-8832,sales@4plsolutions.com,1330 Seaborn St. Suite 5,Mineral Ridge,OH,#5A3F6D,N/A,N/A,Quicklime,41.1454847,-80.7710736
Missippi Lime,N/A,N/A, (800) 437-5463,sales@mlc.com,"3870 S. Lindbergh Blvd., Ste 200",St. Louis,MO,#5A3F6D,Head Quarters,N/A,Quicklime,38.547898,-90.4034926
Missippi Lime,Specialty Products,Dan Menniti,(412)  979-8030,dtmenniti@mlc.com,16147 Highway 61,Ste. Genevieve,MO,#5A3F6D,Production,N/A,Quicklime,37.979336,-90.076666
Missippi Lime,N/A,N/A,N/A,N/A,200 Sierra Drive,Verona,KY,#5A3F6D,Production,N/A,Quicklime,38.778787,-84.696456
Missippi Lime,N/A,N/A,N/A,N/A,8035 Highway 25,Calera,AL,#5A3F6D,Production,N/A,Quicklime,33.09363,-86.796333
Missippi Lime,N/A,N/A,N/A,N/A,1543 Haining Road,"Vicksburg, ",MS,#5A3F6D,Production,N/A,Quicklime,32.3916788,-90.8892064
Missippi Lime,N/A,N/A,N/A,N/A,"3001 Birch Drive
","Weirton, ",WV,#5A3F6D,Production,N/A,Quicklime,40.387193,-80.618053
Missippi Lime,N/A,N/A,N/A,N/A,1551 Cochran Causeway,"Mobile, ",AL,#5A3F6D,Production,N/A,Quicklime,30.761124,-88.148193
Missippi Lime,N/A,N/A,N/A,N/A,"1544 Beltline Road                        
","Chester, ",SC,#5A3F6D,Production,N/A,Quicklime,34.7097104,-81.1343334
Missippi Lime,N/A,N/A,N/A,N/A,7849 Bluff Road,"Prairie du Rocher, ",IL,#5A3F6D,Production,N/A,Quicklime,38.0968234,-90.1080628
Missippi Lime,N/A,N/A,N/A,N/A,6600 Old Bonne Terre Road,"Bonne Terre, ",MO,#5A3F6D,Production,N/A,Quicklime,37.888863,-90.532919
Missippi Lime,N/A,N/A,N/A,N/A,"Melton Ross Quarries, Barnetby","North Lincolnshire, ",DN,#5A3F6D,Production,N/A,Quicklime,39.76,-98.5
Missippi Lime,N/A,N/A,N/A,N/A,12797 Scenic Highway,"Baton Rouge, ",LA,#5A3F6D,Distribution,N/A,Quicklime,30.5595668,-91.2023051
Missippi Lime,N/A,N/A,N/A,N/A,2351 State Street,"Chicago Heights,",IL,#5A3F6D,Distribution,N/A,Quicklime,41.4931652,-87.6160373
Missippi Lime,N/A,N/A,N/A,N/A,89 S 18th Street,"East St. Louis, ",IL,#5A3F6D,Distribution,N/A,Quicklime,38.6106432,-90.146569
Missippi Lime,N/A,N/A,N/A,N/A,8440 Gibbs Road,Kansas City,KS,#5A3F6D,Distribution,N/A,Quicklime,39.0611079,-94.7761898
Missippi Lime,N/A,N/A,N/A,N/A,4620 Monaco Avenue,"Denver, ",CO,#5A3F6D,Distribution,N/A,Quicklime,39.6408544,-104.9107219
"The Kish Company, Inc.",Quicklime,N/A,440-205-9970,info@kishcompany.com,"8020 Tyler Blvd, #100",Mentor,OH,#5A3F6D,N/A,N/A,Quicklime,41.6823942,-81.3542548
Lhoist North America,N/A,N/A,N/A,N/A,N/A,N/A,TX,#5A3F6D,N/A,N/A,Quicklime,31.2638905,-98.5456116
Greer Lime Company,Quicklime,John Bossio (Ex. VP),304-296-1751,jbossio@greerlime.com,PO Box 1900,Morgantown,WV,#5A3F6D,N/A,N/A,Quicklime,39.6296809,-79.9559437
Greer Lime Company,Quicklime,David Harper,304-567-2141,dharper@greerlime.com,1088 Germany Valley Limestone Rd.,Riverton,WV,#5A3F6D,N/A,N/A,Quicklime,38.740639,-79.431344
"Continental Lime, Inc (Graymont)",N/A,N/A,N/A,N/A,N/A,N/A,N/A,#5A3F6D,N/A,N/A,Quicklime,39.7837304,-100.445882
Genoa,Lime,N/A,604-207-4292,N/A,21880 West State Route 163 P.O. Box 158,Genoa,OH,#5A3F6D,N/A,N/A,Quicklime,41.515476,-83.35299
Pleasant Gap,Lime,N/A,1-888-472-9086,N/A,375 Graymont Rd.,Bellefonte ,PA,#5A3F6D,N/A,N/A,Quicklime,40.8916358,-77.7086476
Corporate Office,N/A,N/A,1-604-207-4292,N/A,#200-10991 Shellbridge Way,Richmond BC,Canada,#5A3F6D,N/A,N/A,Quicklime,13.45988,144.78887
Mintek Resources,Quicklime,N/A,937-519-3404,N/A,"3725 Pentagon Blvd, Ste 100",Beavercreek,OH,#5A3F6D,N/A,N/A,Quicklime,39.7711234,-84.0691356
Carmeuse,Quicklime,N/A,N/A,salesinquiries@carmeuse.com,11 Stanwix St. ,Pittsburgh,Pa,#5A3F6D,N/A,N/A,Quicklime,40.4390288,-80.0062963
Buffington Plant,Quicklime,N/A,N/A,N/A,1 North Carmeuse Ln.,Gary,IN,#5A3F6D,N/A,N/A,Quicklime,39.981947,-87.12844
Maysville Plant,Quicklime,N/A,N/A,N/A,9222 Springdale Rd.,Maysville,KY,#5A3F6D,N/A,N/A,Quicklime,38.597822,-83.654845
Grand River Plant,Quicklime,N/A,412-995-5500,N/A,15 Williams St.,Grand River,OH,#5A3F6D,N/A,N/A,Quicklime,41.745795,-81.2854568
Winchester Plant,Quicklime,N/A,N/A,N/A,508 Quarry Lane,Clearbrook,VA,#5A3F6D,N/A,N/A,Quicklime,37.217366,-79.926299
Maple Grove,Quicklime,N/A,412-995-5500,N/A,1967 W County Rd. 42,Bettsville,OH,#5A3F6D,N/A,N/A,Quicklime,40.065128,-80.780045
Asphalt Busters,Quicklime,N/A,623-936-8800,info@asphaltbusters.com,801 South 71st Avenue,Phoenix,AR,#5A3F6D,Head Quarters,N/A,Quicklime,33.278154,-91.769025
National Lime Equipment,Quicklime,Patrick Shields,480-841-9137,patrick@nationallimeequipment.com,P.O. Box 36496 ,Phoenix,AR,#5A3F6D,N/A,N/A,Quicklime,35.3945951,-92.9931351
National Lime Equipment,Quicklime,Brett Tanner,480-267-5208,brett@nationallimeequipment.com,P.O. Box 36497,Phoenix,AR,#5A3F6D,N/A,N/A,Quicklime,35.3945951,-92.9931351
MLC ,Quicklime,N/A,N/A,N/A,200 Sierra Dr.,Verona,KY,#5A3F6D,N/A,N/A,Quicklime,38.778787,-84.696456
MLC ,Quicklime,N/A,N/A,N/A,12797 Scenic Highway,Baton Rouge,LA,#5A3F6D,Terminal,N/A,Quicklime,30.5595668,-91.2023051
MLC ,Quicklime,N/A,N/A,N/A,3001 Birch Dr.,Weirton,WV,#5A3F6D,N/A,N/A,Quicklime,40.387193,-80.618053
MLC ,Quicklime,N/A,N/A,N/A,1024 Commerce Dr.,Grafton,OH,#5A3F6D,N/A,N/A,Quicklime,41.2853546,-82.0677797
MLC ,Quicklime,N/A,N/A,N/A,1544 Beltline Rd.,Chester,SC,#5A3F6D,N/A,N/A,Quicklime,34.7097104,-81.1343334
MLC ,Quicklime,N/A,N/A,N/A,2351 State St.,Chicago Heights,IL,#5A3F6D,Terminal,N/A,Quicklime,41.4931652,-87.6160373
MLC ,Quicklime,N/A,N/A,N/A,89 S 18th St. ,East St. Louis,IL,#5A3F6D,Terminal,N/A,Quicklime,38.6106432,-90.146569
Martin Marietta,N/A,N/A,N/A,N/A,N/A,N/A,N/A,#5A3F6D,N/A,N/A,Quicklime,39.7837304,-100.445882
Woodville,Lime,N/A,919-781-4550,N/A,755 Lime Rd.,Woodville,OH,#5A3F6D,N/A,N/A,Quicklime,41.470056,-83.367646
Rhi Magnesita,Lime,N/A,905-633-4581,N/A,320 N Baker Rd.,York,PA,#5A3F6D,N/A,N/A,Quicklime,39.934781,-76.809141
Reed Oil/21st Century Energy Group,N/A,Loren,724-333-6344,N/A,N/A,N/A,N/A,#6B7280,N/A,N/A,Fuel Sales,39.7837304,-100.445882
Sunoco Shenango,FUEL,N/A,N/A,N/A,2985 New Butler Road,New Castle,PA  16101,#6B7281,N/A,N/A,Fuel Sales,40.9760431,-80.2827366
BP-New Wilmington,FUEL,N/A,N/A,N/A,Rt 208 & 18 ,New Wilmington,PA  16142,#6B7282,N/A,N/A,Fuel Sales,41.115625,-80.360021
BP-New Castle,FUEL,N/A,N/A,N/A,1010 Wilmington Rd,New Castle,PA  16105,#6B7283,N/A,N/A,Fuel Sales,41.0116288,-80.3497204
Citgo-Portersville,FUEL,N/A,N/A,N/A,1651 Perry Hwy Rt 19,Portersville,PA  16051,#6B7284,N/A,N/A,Fuel Sales,40.949964,-80.153903
Citgo-Laurel,FUEL,N/A,N/A,N/A,2335 Harlansburg Road,New Castle,PA  16105,#6B7285,N/A,N/A,Fuel Sales,41.013419,-80.2697249
Citgo-New Castle,FUEL,N/A,N/A,N/A,1010 Wilmington Rd,New Castle,PA  16105,#6B7286,N/A,N/A,Fuel Sales,41.0116288,-80.3497204
Transfer,FUEL,N/A,N/A,N/A,285 Reynolds Ind. Park Rd.,Transfer,PA  16115,#6B7288,N/A,N/A,Fuel Sales,41.3525748,-80.4057911
Grove City,FUEL,N/A,N/A,N/A,408 Erie Street,Grove City,PA  16127,#6B7289,N/A,N/A,Fuel Sales,41.1622898,-80.0899393
Mercer,FUEL,N/A,N/A,N/A,857 Perry Hwy,Mercer,PA  16137,#6B7290,N/A,N/A,Fuel Sales,41.1955861,-80.2408297
New Castle,FUEL,N/A,N/A,N/A,411 Neal Street,New Castle,PA  16101,#6B7291,N/A,N/A,Fuel Sales,40.9961559,-80.342715
Darlington,FUEL,N/A,N/A,N/A,4433 Constitution Blvd,Darlington,PA  16115,#6B7292,N/A,N/A,Fuel Sales,40.8492414,-80.5180227
RD HOLDER Oil Company,N/A,N/A,800-243-0432,N/A,600 N. Dayton-Lakeview Rd,New Carlisle,OH  45344,#6B7293,N/A,N/A,Fuel Sales,39.9238079,-84.030828
BelleFontaine,FUEL,N/A,800-243-0432,N/A,706 W. Sandusky Avenue,Bellefontaine,OH  43311,#6B7294,N/A,N/A,Fuel Sales,40.3633811,-83.7706542
Lancaster,FUEL,N/A,800-243-0432,N/A,238 N. Pierce Avenue,Lancaster,OH  43130,#6B7295,N/A,N/A,Fuel Sales,39.7160241,-82.6188528
Lima,FUEL,N/A,800-243-0432,N/A,1078 S. Metcalf Street,Lima,OH  45804,#6B7296,N/A,N/A,Fuel Sales,40.7245596,-84.1133865
Springfield,FUEL,N/A,800-243-0432,N/A,1135 Warder Street,Springfield,OH  45503,#6B7297,N/A,N/A,Fuel Sales,39.9257791,-83.7913258
Washington Court House,FUEL,N/A,800-243-0432,N/A,304 W. Market St.,Washington Ct House,OH  43160,#6B7298,N/A,N/A,Fuel Sales,39.5354515,-83.4426771
Heath,FUEL,N/A,800-243-0432,N/A,1000 Keller Drive,Heath,OH  43056,#6B7299,N/A,N/A,Fuel Sales,40.0347688,-82.4738745
Laura,FUEL,N/A,800-243-0432,N/A,11611 St. Rte. 571,Laura,OH  45337,#6B7300,N/A,N/A,Fuel Sales,40.006341,-84.420413
Columbus,FUEL,N/A,800-243-0432,N/A,2057 Dublin Road,Columbus,OH  43228,#6B7301,N/A,N/A,Fuel Sales,39.9969261,-83.0877677
Dayton,FUEL,N/A,800-243-0432,N/A,2931 Boulder Ave,Dayton,OH  45414,#6B7302,N/A,N/A,Fuel Sales,39.8100033,-84.1782448
Columbia,FUEL,Main Office,800-982-0363,columbia@lewistransportinc.com,506 Burkeville Street,Columbia,KY  42728,#6B7304,N/A,N/A,Fuel Sales,37.142288,-85.206904
"  Northern KY/Cinci, OH/Knoxvl TN",FUEL,N/A,859-485-2111,walton@lewistransportinc.com,13024 Dixie Highway,Walton,KY  41094,#6B7305,N/A,N/A,Fuel Sales,38.8559508,-84.6026657
Louisville,FUEL,N/A,800-752-6035,louisville@lewistransportinc.com,4205 Campground Road,Louisville,KY  40216,#6B7306,N/A,N/A,Fuel Sales,38.0748568,-85.7608422
Indianapolis,FUEL,N/A,317-535-3525,N/A,N/A,Indianapolis,IN  ,#6B7307,N/A,N/A,Fuel Sales,39.7683331,-86.1583502
Santmyer,Main Office,N/A,800-686-4589,N/A,3000 Old Airport Rd,Wooster,OH  44691,#6B7308,N/A,N/A,Fuel Sales,40.8369167,-81.9089195
Ashland Bulk Plant,FUEL,N/A,419-289-8815,N/A,1011 Jacobson Avenue,Ashland,OH  ,#6B7309,N/A,N/A,Fuel Sales,40.8761096,-82.3074798
Dalton Bulk Plant,FUEL,N/A,330-828-2771,N/A,39 N. Cochran St.,Dalton,OH,#6B7310,N/A,N/A,Fuel Sales,40.7986631,-81.6879293
Mount Vernon Bulk Plant,FUEL,N/A,740-393-2096,N/A,9090 Columbus Road,Mt. Vernon,OH,#6B7311,N/A,N/A,Fuel Sales,40.3794632,-82.4958375
Cincinnati Terminal,FUEL,N/A,N/A,N/A,6555 River Rd,Cincinnati,OH,#6B7312,N/A,N/A,Fuel Sales,39.111331,-84.692824
Columbus Terminal,FUEL,N/A,N/A,N/A,2000 Integrity Drive North,Columbus,OH,#6B7313,N/A,N/A,Fuel Sales,39.936664,-82.942112
Dayton Terminal,FUEL,N/A,N/A,N/A,1708 Farr Drive,Dayton,OH,#6B7314,N/A,N/A,Fuel Sales,39.7870356,-84.1650022
Fairfield Terminal,FUEL,N/A,N/A,N/A,1280 Hicks Blvd.,Fairfield,OH,#6B7315,N/A,N/A,Fuel Sales,39.3480109,-84.5371659
Lima Terminal,FUEL,N/A,N/A,N/A,2050 North Dixie Highway,Lima,OH,#6B7316,N/A,N/A,Fuel Sales,40.764791,-84.057254
Red Rover Ashland ,FUEL,N/A,419-287-7877,N/A,1011 Jacobson Avenue,Ashland,OH,#6B7317,N/A,N/A,Fuel Sales,40.8761096,-82.3074798
Red Rover Canton,FUEL,N/A,844-875-3811,N/A,1700 Shepler Church Ave SW,Canton,OH,#6B7318,N/A,N/A,Fuel Sales,40.7708758,-81.3961746
Red Rover Dalton,FUEL,N/A,844-875-3811,N/A,39 N. Cochran St.,Dalton,OH,#6B7319,N/A,N/A,Fuel Sales,40.7986631,-81.6879293
Red Rover Millersburg,FUEL,N/A,844-875-3811,N/A,5868 County Road 201 ,Millersburg,OH,#6B7320,N/A,N/A,Fuel Sales,40.569808,-81.820753
Red Rover Mount Vernon,FUEL,N/A,330-262-6502,N/A,9090 Columbus Road,Mt Vernon,OH,#6B7321,N/A,N/A,Fuel Sales,40.3794632,-82.4958375
Red Rover Sugarcreek,FUEL,N/A,844-875-3811,N/A,754 State Route 93,Sugarcreek,OH,#6B7322,N/A,N/A,Fuel Sales,40.5172348,-81.648294
Red Rover Wooster,FUEL,N/A,844-875-3811,N/A,2990 Old Airport Road,Wooster,OH,#6B7323,N/A,N/A,Fuel Sales,40.8332279,-81.9068006
Richfield Terminal,FUEL,N/A,N/A,N/A,3800 Congress Parkway,Richfield,OH,#6B7324,N/A,N/A,Fuel Sales,41.2135359,-81.6322876
Youngstown Terminal,FUEL,N/A,N/A,N/A,11600 Mahoning Ave,North Jackson,OH,#6B7325,N/A,N/A,Fuel Sales,41.0997763,-80.869549
Zanesville Terminal,FUEL,N/A,N/A,N/A,1039 Lee St,Zanesville,OH,#6B7326,N/A,N/A,Fuel Sales,39.9459741,-82.0195983
Wooster Bulk Plant,FUEL,N/A,330-262-6501,N/A,1055 West Old Lincoln Way,Wooster,OH,#6B7327,N/A,N/A,Fuel Sales,40.799379,-81.955658
JL Fuels,Main Office,N/A,740-439-2797,lurdak@live.com,11227 Pleasant Road,Pleasant City,OH  43772,#6B7328,N/A,N/A,Fuel Sales,39.9084073,-81.5364764
Bloomingdale,FUEL,N/A,888-944-1974,N/A,1525 State Hwy 152,"Bloomingdale,",OH  43910,#6B7330,N/A,N/A,Fuel Sales,40.361414,-80.800309
Cadiz,FUEL,N/A,740-942-0153,N/A,994 East Market Street,Cadiz,OH  43907,#6B7331,N/A,N/A,Fuel Sales,40.254215,-80.9765012
Dillonvale,FUEL,N/A,740-769-1796,N/A,40 Smithfield Street,Dillonvale,OH  43917,#6B7332,N/A,N/A,Fuel Sales,40.202637,-80.771983
Beavecreek ,N/A,N/A,N/A,N/A,849 Factory Road,Beavercreek,OH  45434,#6B7334,N/A,N/A,Fuel Sales,39.713312,-84.028641
Springfield,N/A,N/A,N/A,N/A,2850 E. Leffel Lane,Springfield,OH  45505,#6B7335,N/A,N/A,Fuel Sales,39.891909,-83.765749
Sunbury,N/A,N/A,N/A,N/A,148 S. Vernon Street,Sunbury,OH  43074,#6B7336,N/A,N/A,Fuel Sales,40.3922018,-82.4854568
Oilworks,Main Office,N/A,614-987-4886,oilworks@oilworksllc.com,"1611 Integrity Dr, E",Columbus,OH  43209,#6B7337,N/A,N/A,Fuel Sales,39.9349034,-82.9371879
"Ricochet Fuel Distributors, Inc,",FUEL,N/A,833-724-2789,N/A,1201 Royal Parkway,Euless,TX  76040,#6B7338,N/A,N/A,Fuel Sales,32.8207512,-97.1187559
Ashland,N/A,N/A,419-289-3610,N/A,824 US-42,Ashland,OH  44805,#6B7340,N/A,N/A,Fuel Sales,40.77137,-82.4841719
Medina,N/A,N/A,330-725-4951,N/A,6080 Norwalk Road,Medina,OH  44256,#6B7341,N/A,N/A,Fuel Sales,41.154863,-81.904334
Wellington  ,N/A,N/A,440-647-3725,N/A,625 South Main Street,Wellington,OH  44090,#6B7342,N/A,N/A,Fuel Sales,41.3941943,-82.2272715
Ullman Oil Co.,Main Office,N/A,440-543-5195,N/A,9812 E. Washington St.,Chagrin Falls,OH,#6B7344,N/A,N/A,Fuel Sales,41.4302376,-81.3823918
Sugarcreek Division,N/A,N/A,N/A,N/A,"223 Yoder Ave, NW",Sugarcreek,OH,#6B7345,N/A,N/A,Fuel Sales,40.5061276,-81.6414273
Cleveland Hub,N/A,N/A,216-478-0501,N/A,4500 Renaissance Pkwy,Cleveland ,OH,#6B7347,N/A,N/A,Fuel Sales,41.441464,-81.490023
Corporate office,Main Office,N/A,440-354-3669,sales@meltzersfuel.com,755 E Erie St.,Painesville,OH,#6B7351,N/A,N/A,Fuel Sales,41.7362916,-81.2356167
Middlefield Bulk Plant,FUEL,N/A,440-354-3669,sales@meltzersfuel.com,15031 Thompson Ave,Middlefield,OH,#6B7352,N/A,N/A,Fuel Sales,41.4600358,-81.0693992
Geneva Bulk Plant,FUEL,N/A,440-354-3689,sales@meltzersfuel.com,2868 Pandanarum Rd.,Geneva,OH,#6B7353,N/A,N/A,Fuel Sales,41.7769,-80.949898
Tidioute Oil Co.,N/A,N/A,1-814-484-3565,sales@meltzersfuel.com,16 Buckingham St.,Tidioute ,PA,#6B7354,N/A,N/A,Fuel Sales,41.682732,-79.413138
Newcomerstown Bulk/ HQ,Main office,N/A,740-498-6236,N/A,100 West St.,Newcomerstown,OH,#6B7356,N/A,N/A,Fuel Sales,40.276076,-81.597263
New Philadelphia Bulk,Fuel,N/A,330-339-7131,N/A,130 Tenth St. SW,New Philadelphia,OH,#6B7357,N/A,N/A,Fuel Sales,40.491902,-81.46317
Caldwell Bulk,Fuel,N/A,740-732-4555,N/A,901 Miller St,Caldwell,OH,#6B7358,N/A,N/A,Fuel Sales,39.7498224,-81.5226689
Wooster Bulk,Fuel,N/A,330-641-8998,N/A,530 Palmer St,Wooster ,OH,#6B7359,N/A,N/A,Fuel Sales,40.8033064,-81.9247973
Circleville Bulk,Fuel,N/A,740-474-4606,rader@rjwrightandsons.com,811 South Pickaway St.,Circleville,OH,#6B7360,N/A,N/A,Fuel Sales,39.5936206,-82.9464731
Varouh Oil,Fuel,N/A,440-324-5025,N/A,970 Griswold Rd.,Elyria,OH,#6B7361,N/A,N/A,Fuel Sales,41.4003257,-82.1205824
Ports Petroleum,Dustin ,N/A,330-264-1885,N/A,1337 Blachleyville Rd.,Wooster,OH ,#6B7362,N/A,N/A,Fuel Sales,40.77974,-81.967772
Carsten Oil,N/A,N/A,260-432-3507,N/A,2910 Connett Ave.,Fort Wayne,IN,#6B7363,N/A,N/A,Fuel Sales,41.0590177,-85.1743141
Cadence Petroleium,Products/services,N/A,N/A,N/A,2469 Creekway Dr,Columbus,OH,#6B7364,N/A,N/A,Fuel Sales,39.895243,-82.9331657
Stevenson Oil and Chemical,N/A,N/A,440-943-3337,stevensonoil@sbcglobal.net,30130 Lakeland Blvd.,Wickliffe,OH,#6B7365,N/A,N/A,Fuel Sales,41.6199857,-81.465354
Corporate Office,Main Office,N/A,513-489-6000,N/A,8280 Montgomery Rd. Suite 101,Cincinnati,OH,#6B7367,N/A,N/A,Fuel Sales,39.1431873,-84.4707053
Butler Distribution,N/A,N/A,800-772-5823,N/A,150 Bonnie Dr.,Butler,PA,#6B7368,N/A,N/A,Fuel Sales,40.8639639,-79.873321
Columbus Distribution,N/A,N/A,614-871-1500,N/A,2181 Hardy Parkway St.,Grove City,OH,#6B7369,N/A,N/A,Fuel Sales,39.913308,-83.037618
Kent Distribution,N/A,N/A,330-673-8800,N/A,4411 Crystal Parkway,Kent ,OH,#6B7370,N/A,N/A,Fuel Sales,41.115451,-81.382548
Mansfield Distribution,N/A,N/A,N/A,N/A,375 North Main St.,Mansfield,OH,#6B7371,N/A,N/A,Fuel Sales,40.7686501,-82.5149815
Warminster Distribution,N/A,N/A,800-772-5823,N/A,1020 Louis Dr.,Warminster,PA,#6B7372,N/A,N/A,Fuel Sales,40.2093536,-75.080494
Washington Distribution ,N/A,N/A,800-772-5823,N/A,44 Bridge St.,Washington,PA,#6B7373,N/A,N/A,Fuel Sales,40.0979239,-79.8449736
The McGlaughlin Oil Co,N/A,N/A,800-839-6589,orders@mcglaughlinoil.com,3750 E. Livingston Ave.,Columbus,OH,#6B7374,N/A,N/A,Fuel Sales,39.945902,-82.895955
RD Holder Oil Co,HQ,N/A,1-800-243-0432,N/A,600 North Dayton-Lakeview Rd.,New Carlisle ,OH,#6B7375,N/A,N/A,Fuel Sales,39.9238079,-84.030828
N/A,N/A,N/A,1-800-243-0432,N/A,706 W Sandusky Ave.,Bellefontaine,OH,#6B7376,N/A,N/A,Fuel Sales,40.3633811,-83.7706542
N/A,N/A,N/A,1-800-243-0432,N/A,1000 Keller Dr.,Heath,OH,#6B7377,N/A,N/A,Fuel Sales,40.0347688,-82.4738745
N/A,N/A,N/A,1-800-243-0432,N/A,238 N Pierce Ave,Lancaster,OH,#6B7378,N/A,N/A,Fuel Sales,39.7160241,-82.6188528
N/A,N/A,N/A,1-800-243-0432,N/A,11611 State Route 571,Laura,OH,#6B7379,N/A,N/A,Fuel Sales,40.006341,-84.420413
N/A,N/A,N/A,1-800-243-0432,N/A,685 S Robets Ave,Lima,OH,#6B7380,N/A,N/A,Fuel Sales,40.772147,-84.0471
N/A,N/A,N/A,1-800-243-0432,N/A,2057 Dublin Rd,Columbus,OH,#6B7381,N/A,N/A,Fuel Sales,39.9969261,-83.0877677
N/A,N/A,N/A,800-521-5420,N/A,15140 State Route 328,Logan ,OH,#6B7382,N/A,N/A,Fuel Sales,39.50374,-82.370808
N/A,N/A,N/A,1-800-243-0432,N/A,1135 Warder St.,Springfield,OH,#6B7383,N/A,N/A,Fuel Sales,39.9257791,-83.7913258
N/A,N/A,N/A,1-800-243-0432,N/A,304 W Market St.,Washington Court House,OH,#6B7384,N/A,N/A,Fuel Sales,39.5354515,-83.4426771
Holmes Oil,Office,N/A,330-893-2199,N/A,5866 County Rd. 201,Millersburg,OH,#6B7385,N/A,N/A,Fuel Sales,40.569773,-81.820679
Holmes Oil,N/A,James Halverson,330-317-8266,james@holmesoildistributing.com,5866 County Rd. 201,Millersburg,OH,#6B7386,N/A,N/A,Fuel Sales,40.569773,-81.820679
Holmes Oil,President,Jeremy Burgett,330-231-8635,jeremy@holmesoildistributing.com,5866 County Rd. 201,Millersburg,OH,#6B7387,N/A,N/A,Fuel Sales,40.569773,-81.820679
Ports Petroleum,N/A,Dustin Kessinger,330-231-1649,dustink@portspetro.com,1337 Blachleyville Rd.,Wooster,OH,#6B7388,N/A,N/A,Fuel Sales,40.77974,-81.967772
Coles Energy,N/A,Kip ,419-499-1120,info@colesenergyin.com,3619 State Route 113 E,Milan,OH,#6B7389,N/A,N/A,Fuel Sales,41.299935,-82.556685
Northeast Lubricants,General Manager,Dan Grummitt,216-701-5062,dgrumitt@glpetro.com,4500 Renaissance Pkwy.,Cleveland,OH,#6B7390,N/A,N/A,Fuel Sales,41.441464,-81.490023
Great Lakes Petroleum,Sales manager,Jeff Gregel,330-888-8589,jgregel@glpetro.com,4500 Renaissance Parkway,Cleveland,OH,#6B7391,N/A,N/A,Fuel Sales,41.441464,-81.490023
N/A,Sales manager,Damon De Luca,919-594-4475,ddeluca@glpetro.com,11110 Westlake Drive,Charlotte,NC,#6B7392,N/A,N/A,Fuel Sales,35.1372164,-80.9711573
N/A,Sales manager,Brannon Evans,404-852-5946,bevans@glpetro.com,3055 Humphries Hill Rd.,Austell,GA,#6B7393,N/A,N/A,Fuel Sales,33.8107785,-84.6453996
N/A,Sales manager,Charles Reibling,704-302-4963,creibling@glpetro.com,14418 Smith Rd.,Humble,TX,#6B7394,N/A,N/A,Fuel Sales,29.929337,-95.287594
N/A,Sales manager,Jeff Gregel,330-888-8589,jgregel@glpetro.com,PO Box 780040 ,Philadelphia,PA,#6B7395,N/A,N/A,Fuel Sales,39.9527237,-75.1635262
Cooperrider Water Hauling,N/A,N/A,740-404-4065,N/A,N/A,Thornville,Ohio,#3F6F7F,N/A,N/A,Water,39.896454,-82.4201539
Wagner Water Hauling,N/A,N/A,740-927-9686,N/A,N/A,Lancaster ,Ohio,#3F6F7F,N/A,N/A,Water,39.7136754,-82.5993294
"Aquasource Water Hauling, LLC",N/A,Chris,937-642-9777,N/A,N/A,Marysville,Ohio,#3F6F7F,N/A,N/A,Water,40.2364486,-83.3671432
A to Z Water Hauling,N/A,N/A,937-964-8746,N/A,N/A,Springfield,Ohio,#3F6F7F,N/A,N/A,Water,39.9234046,-83.810138
Crabtree Water Hauling,N/A,Tony,614-778-6261,N/A,N/A,Springfield,Ohio,#3F6F7F,N/A,N/A,Water,39.9234046,-83.810138
Mumaw Water Hauling,N/A,N/A,740-674-7238,N/A,N/A,Blue Rock,Ohio,#3F6F7F,N/A,N/A,Water,39.8000697,-81.8915241
CSB Transport-Pool and Spa Bulk Delivery,N/A,N/A,330-465-8822,N/A,N/A,Wooster,Ohio,#3F6F7F,N/A,N/A,Water,40.7980976,-81.9397733
Demboski Pool Water,N/A,John,330-947-0201,N/A,N/A,Atwater ,Ohio,#3F6F7F,N/A,N/A,Water,41.023947,-81.163433
Spahr's Water Truck,N/A,N/A,330-697-4005,N/A,N/A,Rootstown,Ohio,#3F6F7F,N/A,N/A,Water,41.0990792,-81.2424901
Strouble Water Hauling and Trucking,N/A,N/A,330-877-6795,N/A,N/A,Louisville,Ohio,#3F6F7F,N/A,N/A,Water,40.8375307,-81.2595731
Sunrise Springs Water Truck,N/A,N/A,330-325-8001,N/A,N/A,Portage,Ohio,#3F6F7F,N/A,N/A,Water,41.1496775,-81.2082
Lakes Water Hauling,N/A,Eric,513-620-1023,N/A,N/A,Cincinatti,Ohio,#3F6F7F,N/A,N/A,Water,40.25034,-83.00018
H2 Eco Bulk,N/A,N/A,888-575-5384,N/A,N/A,Houston,TX,#3F6F7F,N/A,N/A,Water,29.7589382,-95.3676974
E tank,N/A,Brandon,412-715-3372,N/A,N/A,Cincinnati,Ohio,#3F6F7F,N/A,N/A,Water,39.1014537,-84.5124602
Gobel Towing,N/A,N/A,330-549-3562,N/A,1860 S Range,North Lima,Ohio,#8B3A3A,N/A,N/A,Heavy Haulers,40.9440518,-80.6691715
CLT towing & transport,N/A,Terry McCorkle,912-739-7800,N/A,9899 US-280,Claxton,GA,#8B3A3A,N/A,N/A,Heavy Haulers,32.1613788,-81.8955948
Freight Pros,N/A,Diane,770-725-4800,Diane@freightpros.net,N/A,N/A,N/A,#8B3A3A,N/A,N/A,Heavy Haulers,39.7837304,-100.445882
 ,N/A,Thad,941-776-3450,tsargent@B2Btranserv.com,1318 4th Avenue,Moline,IL,#8B3A3A,N/A,N/A,Heavy Haulers,41.5062829,-90.5191483
JBH Transport & Logistics,N/A,N/A,770-251-8921,dispatch@jbharrisgroup.com,129 Pine Road,Newnan,GA,#8B3A3A,N/A,N/A,Heavy Haulers,33.4198484,-84.774356
Nationwide Transport,N/A,Andrew Young,859-475-1418,Andrew@nationwidetransportservices .com,2765 W Cypress Creek Rd.,Fort Lauderdale,FL,#8B3A3A,N/A,N/A,Heavy Haulers,26.2033207,-80.1552825
B& H Heavy Haul,N/A,N/A,770-786-7892,Bhwrecker@yahoo.com,795 Adamson Dr,Monroe,GA,#8B3A3A,N/A,N/A,Heavy Haulers,34.134672,-82.900461
Livingston LLC,N/A,Edward Livingston,N/A,edward@livingstontransportation.com,169 Blankenship Rd.,Texarkana,TX,#8B3A3A,N/A,N/A,Heavy Haulers,33.42513,-94.04769
Redi Mix & BuilderSupply ,Portland Cement,Greg Reshenberg,724-321-3830,gregr@stoneconcrete.com,N/A,N/A,Pennsylvania,#7A4A63,N/A,N/A,Portland Cement,40.9699889,-77.7278831
St Marys Cement,Portland Cement,De' Andre Davis,216-280-8202,Deandre.davis@vcimentos.com,250 Jefferson Avenue,Cleveland,Ohio,#7A4A64,Terminal,Selfload,Portland Cement,41.4823948,-81.6778329
St Marys Cement,Portland Cement,John Doubikin,614-203-4152,John.Doubikin@vcimentos.com,14531 Industrial Parkway,Marysville,Ohio,#7A4A65,Terminal,Long Lines,Portland Cement,40.2172685,-83.329024
St Marys Cement,Portland Cement,De' Andre Davis,216-280-8202,Deandre.davis@vcimentos.com,2301 Front Street,Toledo,Ohio,#7A4A66,Terminal,N/A,Portland Cement,41.6664387,-83.4968108
St Marys Cement,Portland Cement,Grace Fitzpatrick,708-577-0​115,Grace.Fitzpatrick@vcimentos.com,400 Seahorse Drive,Waukegan,Illinois,#7A4A70,Terminal?,N/A,Portland Cement,42.368439,-87.823627
St Marys Cement,Portland Cement,Steven Gynn,563-343-5909,Steven.Gynn@vcimentos.com,1914 White Oak Lane,Dixon,Illinois,#7A4A71,Plant,N/A,Portland Cement,41.8585533,-89.4576852
St Marys Cement,Portland Cement,Grace Fitzpatrick,708-577-0​115,Grace.Fitzpatrick@vcimentos.com,12101 S. Doty Avenue,Chicago ,Illinois,#7A4A72,Terminal,N/A,Portland Cement,41.6951383,-87.59993
St Marys Cement,Portland Cement,Vincent Finazzo,586-747-7978,Vincent.Finazzo@vcimentos.com,9333 Dearborn Street,Detriot,Michigan ,#7A4A73,Plant,N/A,Portland Cement,42.400693,-82.926266
St Marys Cement,Portland Cement,Jason Chalupniczak,231-675-0694,Jason.Chalupniczak@vcimentos.com,16000 Bells Bay Road,Charlevoix,Michigan ,#7A4A74,Plant,N/A,Portland Cement,45.308112,-85.310236
St Marys Cement,Portland Cement,Dean Bradfield,616-302-3399,Dean.Bradfield@vcimentos.com,555 W. 2nd Street,Ferrysburg,Michigan ,#7A4A75,Terminal,N/A,Portland Cement,43.945718,-86.433025
St Marys Cement,Portland Cement,Greg DeFrancisco,(585) 448-9841,greg.defrancisco@vcimentos.com,389 Ganson Street,Buffalo ,New York,#7A4A76,Terminal,N/A,Portland Cement,42.8711658,-78.8735973
St Marys Cement,Portland Cement,Lou Zeppieri,(516) 660-5682,louis.zeppieri@vcimentos.com,50 Oak Point Ave,Bronx,New York,#7A4A77,Terminal,N/A,Portland Cement,40.808872,-73.8945276
St Marys Cement,Portland Cement,Michael Marzka,716-560-9979,Michael.marzka@vcimentos.com,1975 S. Carferry Drive,Milwaukee,Wisconsin ,#7A4A78,Plant,Close proximity or same place,Portland Cement,43.0073224,-87.8960957
St Marys Cement,Portland Cement,Chad Hemenway,708-986-7382,Chad.hemenway@vcimentos.com,2006 S. Kinnickinnic Ave,Milwaukee,Wisconsin ,#7A4A79,Terminal,Close proximity or same place,Portland Cement,43.0082401,-87.9069403
St Marys Cement,Portland Cement,Ryan Jones,708-470-9282,Ryan.jones@vcimentos.com,924 McDonald Street,Green Bay ,Wisconsin ,#7A4A80,Terminal,N/A,Portland Cement,44.5257974,-88.0124771
St Marys Cement,Portland Cement,Ryan Jones,708-470-9283,Ryan.jones@vcimentos.com,1801 Spring Street,Manitowoc,Wisconsin ,#7A4A81,Terminal,N/A,Portland Cement,44.1001055,-87.6706595
St Marys Cement,Portland Cement,Jim Prendergast,(508) 685-6531,jim.prendergast@vcimentos.com,"Port of Providence, 39 New York Ave",Providence,Rhode Island,#7A4A84,Terminal,N/A,Portland Cement,41.792376,-71.389389
St Marys Cement,Portland Cement,Rob Madore,(802) 236-2869,robert.madore@vcimentos.com,953 Odlin Road,Bangor,Maine,#7A4A85,Terminal,N/A,Portland Cement,44.7812213,-68.8353213
St Marys Cement,Portland Cement,N/A,N/A,N/A,"50, Road 132 Port-Daniel–Gascons, Quebec G0C 2N0",Port-Daniel–Gascons,Quebec,#7A4A86,Plant,N/A,Portland Cement,48.165726,-64.982454
Fairborn Cement,Portland Cement,Mike Jackowski,N/A,N/A,3250 Linebaugh Road,Xenia,Ohio,#7A4A88,Plant,N/A,Portland Cement,39.779846,-83.974325
Fairborn Cement,Slag Cement,Grant Webber,N/A,N/A,220 Walnut Street,Blacklick,Ohio,#7A4A89,Distribution Facility,N/A,Portland Cement,39.995643,-82.8117999
Fairborn Cement,Slag Cement,Andy Hixon,N/A,N/A,3020 East 103rd Street,Chicago,Illinois,#7A4A90,Plant,N/A,Portland Cement,41.7085613,-87.5503503
Fairborn Cement,Slag Cement,Tyler Southworth,(859) 321-6179,N/A,3155 Homeward Way,Fairfield,Ohio,#7A4A91,N/A,N/A,Portland Cement,39.3304756,-84.5072323
Fairborn Cement,Slag Cement,Kurt Rosander,(412) 401-4556,N/A,315 Poplar Street,Etna,Pennsylvania,#7A4A92,N/A,N/A,Portland Cement,40.492629,-79.9449293
Kosmos Cement,Portland Cement,N/A,N/A,N/A,"1051 South Emerson Indianapolis, IN 46203",Indianpolis,Indiana,#7A4A93,Terminal,N/A,Portland Cement,39.706241,-86.096893
Kosmos Cement,Portland Cement,N/A,N/A,N/A,"15301 Dixie Hwy, Louisville, KY 40272",Louisville,Kentucky,#7A4A94,Plant,N/A,Portland Cement,38.0362745,-85.9085517
Kosmos Cement,Portland Cement,N/A,N/A,N/A,"Main St. & River Front, Ceredo WV 25507",Ceredo,West Virginia ,#7A4A95,Terminal,N/A,Portland Cement,38.396529,-82.558723
Kosmos Cement,Portland Cement,N/A,N/A,N/A,"1007 Maccorkle Avenue SW Charleston, WV 25303",Charleston,West Virginia ,#7A4A96,Terminal,N/A,Portland Cement,38.3641258,-81.6738839
Kosmos Cement,Portland Cement,N/A,N/A,N/A,"200 Barkley St Cincinnati, OH 45204",Cincinnati,Ohio,#7A4A97,Terminal,N/A,Portland Cement,39.076247,-84.604473
Kosmos Cement,Portland Cement,N/A,N/A,N/A,"958 Delaware Avenue Lexington, KY 40505",Lexington,Kentucky,#7A4A98,Terminal,N/A,Portland Cement,38.0384412,-84.4725932
Kosmos Cement,Portland Cement,N/A,N/A,N/A,"3301 Port West – East Mt. Vernon, IN 47620",Mt. Vernon,Indiana,#7A4A99,Terminal,N/A,Portland Cement,38.400247,-86.934531
Kosmos Cement,Portland Cement,N/A,N/A,N/A,"200 Neville Road Pittsburgh, PA 15225",Pittsburgh,Pennsylvania ,#7A4A100,Terminal,N/A,Portland Cement,40.4942282,-80.0809961
Kosmos Cement,Portland Cement,N/A,N/A,N/A,"21 Oldham St Nashville, TN 37213",Nashville,Tennesee ,#7A4A101,Terminal,N/A,Portland Cement,36.1746568,-86.7762352
Lehigh/Heidelburg,Portland Cement,Kevin Redovan,614-563-5928,N/A,"1550 Williams rd Columbus, OH 43207",Columbus,Ohio,#7A4A102,Terminal,N/A,Portland Cement,39.89021,-82.9593887
Lehigh/Heidelburg,Portland Cement,Jerry Lewis,216-212-6802,jerry.lewis@heidelburgmaterials.com,"1101 Erieside Avenue Extended Cleveland, OH 44114",Cleveland,Ohio,#7A4A103,Terminal,N/A,Portland Cement,41.505838,-81.701585
Lehigh/Heidelburg,Portland Cement,Jerry Lewis,216-212-6802,jerry.lewis@heidelburgmaterials.com,"8282 Middlebranch Road Middlebranch, OH 44652",Middle Branch,Ohio,#7A4A104,Terminal,N/A,Portland Cement,40.900115,-81.327025
Lehigh/Heidelburg,Portland Cement,Brooke Doesburg,513-535-0271,N/A,"2792 Glendale-Milford Road Cincinnati, OH 45241",Cincinnati ,Ohio,#7A4A105,Terminal,N/A,Portland Cement,39.2513081,-84.3818452
Lehigh/Heidelburg,Portland Cement,Tony Demaio ,412-335-0170,N/A,"100 Woodlawn Road Alipquippa, PA 15001",Aliquippa ,Pennsylvania,#7A4A106,Terminal,N/A,Portland Cement,40.626241,-80.371376
Lehigh/Heidelburg,Portland Cement,Kevin Redovan,614-563-5928,N/A,"6 Pickens Road Nitro, WV 25143",Nitro,West Virginia,#7A4A107,Terminal,N/A,Portland Cement,38.4340465,-81.8404866
Lehigh/Heidelburg,Portland Cement,Joe Bartley,804-382-1832,N/A,"500 Delaware Avenue Waynesboro, VA 22980",Waynesboro,Virginia,#7A4A108,Terminal,N/A,Portland Cement,38.091474,-78.866541
Lehigh/Heidelburg,Portland Cement,Joe Bartley,804-382-1832,N/A,"675 Quaker Hill Road Union Bridge, MD 21791",Union Bridge,Maryland,#7A4A109,Terminal,N/A,Portland Cement,39.5568756,-77.1660145
Lehigh/Heidelburg,Portland Cement,Brooke Doesburg,513-535-0271,N/A,"5 Beacon Drive Wilder, KY 41076",Wilder,Kentucky,#7A4A110,Terminal,N/A,Portland Cement,39.0146619,-84.4803911
Lehigh/Heidelburg,Portland Cement,Steve Grytza,317-339-6687,N/A,"6300 Columbus Avenue Anderson, IN 46013",Anderson ,Indiana ,#7A4A111,Terminal,N/A,Portland Cement,40.0505963,-85.6636979
Lehigh/Heidelburg,Portland Cement,N/A,N/A,N/A,210 Detroit Street Windsor ON N9C 2P1,Windsor,Ontario,#7A4A112,N/A,N/A,Portland Cement,42.281863,-83.029189
Lehigh/Heidelburg,Portland Cement,Steve Somerville,610-746-2222,N/A,537 Evansville Rd Fleetwood PA 19522,Fleetwood,Pennsylvania,#7A4A113,Terminal,N/A,Portland Cement,40.471116,-75.885998
Lehigh/Heidelburg,Portland Cement,Joe Bartley,804-382-1832,N/A,"3100 Mertens Avenue Baltimore, MD 21224",Baltimore,Maryland,#7A4A114,Terminal,N/A,Portland Cement,39.2629116,-76.5713156
Lehigh/Heidelburg,Portland Cement,Joe Bartley,804-382-1832,N/A,"8791 Hampton Blvd. Norfolk, VA 23505",Norfolk,Virginia,#7A4A115,Terminal,Facitiy: 757-423-4462,Portland Cement,36.9324524,-76.3177426
Lehigh/Heidelburg,Portland Cement,Steve Somerville,610-746-2222,N/A,"3938 Easton Nazareth Hwy Nazareth, PA 18064",Nazareth,Pennsylvania,#7A4A116,Terminal,N/A,Portland Cement,40.7313124,-75.3059801
Lehigh/Heidelburg,Portland Cement,Stanley Trella,484-269-1748,N/A,"63 Flushing Avenue, Unit 295 Brooklyn, NY 11205
",Brooklyn,New York,#7A4A117,Terminal,N/A,Portland Cement,40.69794,-73.97507
Lehigh/Heidelburg,Portland Cement,Joe Bartley,804-382-1832,N/A,"13021 Ramblewood Dr. Chester, VA 23836
",Chester,Virginia,#7A4A118,Terminal,N/A,Portland Cement,37.349974,-77.392883
Lehigh/Heidelburg,Portland Cement,Joe Bartley,804-382-1832,N/A,"1031 Drew Street Durham, NC 27701
",Durham,North Carolina,#7A4A119,Terminal,N/A,Portland Cement,36.0021052,-78.8830815
Lehigh/Heidelburg,Portland Cement,Steve Grytza,317-339-6687,N/A,"3084 W Co Rd 225 S Logansport, IN 46947",Logansport,Indiana ,#7A4A120,Terminal,N/A,Portland Cement,40.751666,-86.381991
Lehigh/Heidelburg,Portland Cement,Justin Edwards,317-471-9608,N/A,"180 Main Street Mitchell, IN 47446
",Mitchell,Indiana ,#7A4A121,Terminal,N/A,Portland Cement,38.7343212,-86.466834
Lehigh/Heidelburg,Portland Cement,Todd Deerr,502-419-8610,N/A,"301 US 31 Sellersburg, IN 47172
",Sellersburg,Indiana ,#7A4A122,Terminal,N/A,Portland Cement,38.4110515,-85.7527312
Texas Lehigh,Portland Cement,Bill Wilkins,817-296-6829,N/A,"600 North Highway 377 Roanoke, TX 76262",Roanoke,Texas,#7A4A123,Terminal,N/A,Portland Cement,33.003657,-97.227811
Texas Lehigh,Portland Cement,Marvin Bragewitz,512-434-9330,N/A,"2002 Old Marlin Road Waco, TX 76705",Waco,Texas,#7A4A124,Terminal,N/A,Portland Cement,31.5465727,-97.071019
Texas Lehigh,Portland Cement,John Williams,210-827-8200,N/A,"565 T. C. Jester Boulevard Houston, TX 77007",Houston,Texas,#7A4A125,Terminal,N/A,Portland Cement,29.7833639,-95.4176839
Texas Lehigh,Portland Cement,Marvin Bragewitz,512-434-9330,N/A,"1000 Jack C. Hays Trail Buda, TX 7810",Buda,Texas,#7A4A126,Terminal,N/A,Portland Cement,30.0742771,-97.8533597
Lehigh/Heidelburg,Portland Cement,Mark Camptbell,770-597-3535,N/A,"2194 West Point Avenue College Park, GA 30337",College Park,Georgia,#7A4A127,Terminal,Sales: 800-955-0015,Portland Cement,33.6372389,-84.4603823
Lehigh/Heidelburg,Portland Cement,Mark Camptbell,770-597-3535,N/A,"6555 Button Gwinnett Drive Doraville, GA 30340",Doraville,Georgia,#7A4A128,Terminal,Sales: 800-955-0015,Portland Cement,33.903093,-84.2417838
Lehigh/Heidelburg,Portland Cement,Mark Camptbell,770-597-3535,N/A,"15990 East Cherokee Drive Ball Ground, GA 30107",Ball Ground,Georgia,#7A4A129,Terminal,Sales: 800-955-0015,Portland Cement,31.999225,-81.071804
Lehigh/Heidelburg,Portland Cement,Tony Dimaggio,321-783-0373,N/A,"1996 E. Beaver Street Jacksonville, FL 32202",Jacksonville,Florida,#7A4A130,Terminal,Sales: 800-432-0135,Portland Cement,30.3243656,-81.6282174
Lehigh/Heidelburg,Slag Cement,Dominic Jampo,484-507-4110,N/A,"595 Morgan St., Camden, NJ 8104",Camden,New Jersey,#7A4A131,Plant,N/A,Portland Cement,39.9125682,-75.1182494
Lehigh/Heidelburg,Portland Cement,David Wells,952-412-9194,N/A,"700 25th Street NW, Mason City, IA, 50401",Mason City,Iowa,#7A4A132,Terminal,N/A,Portland Cement,43.1767586,-93.2057142
Lehigh/Heidelburg,Portland Cement,John Ellis,860-759-0517,N/A,"120 Alpha Blvd., Catskill, NY, 12414",Catskill,New York,#7A4A133,Terminal,N/A,Portland Cement,42.1454381,-73.9127835
Lehigh/Heidelburg,Portland Cement,Tommy Granade,770-408-8869,N/A,"8401 Second Avenue, Leeds, AL, 35094",Leeds,Alabama,#7A4A134,Terminal,N/A,Portland Cement,33.543008,-86.545861
Lehigh/Heidelburg,Slag Cement,Ed Hernandez,321-652-9965,N/A,"575 Cargo Road, Port Canaveral, FL, 32920",Port Canaveral,Florida,#7A4A135,Terminal,N/A,Portland Cement,28.41611,-80.60783
Lehigh/Heidelburg,Portland Cement,Ed Hernandez,321-652-9966,N/A,"9012 Marlin Street, Cape Canaveral, FL, 32920",Cape Canaveral,Florida,#7A4A136,Terminal,N/A,Portland Cement,28.405411,-80.608812
Lehigh/Heidelburg,Portland Cement,N/A,N/A,N/A,"575 Commissioners Street, Toronto, ON M4M 1A5",Toronto,Ontario,#7A4A137,Terminal,N/A,Portland Cement,43.653668,-79.331208
Lehigh/Heidelburg,Portland Cement,John Ellis,860-759-0517,N/A,"361 Boxart Street, Rochester, NY, 14612",Rochester,New York,#7A4A138,Terminal,N/A,Portland Cement,43.2264842,-77.6185688
Lehigh/Heidelburg,Portland Cement,Jarret Hager,587-985-8454,N/A,"10616-87 Avenue, Fort St. John, BC V1J 5K7",Fort St. John,British Columbia,#7A4A139,Terminal,Sales: 800-252-9304,Portland Cement,56.233827,-120.85598
Texas Lehigh,Portland Cement,David Sobczak,512-295-9208,N/A,"1800 East Navigation Blvd. Corpus Christi, TX 78402",Corpus Christi,Texas,#7A4A140,Terminal,N/A,Portland Cement,27.735341,-97.39385
Lehigh/Heidelburg,Portland Cement,Nelson Hernandez,954-822-4166,N/A,"2600 Eisenhower Blvd. Fort Lauderdale, FL 33316",Fort Lauderdale,Florida,#7A4A141,Terminal,Sales: 800-432-0135,Portland Cement,26.0987789,-80.1244866
Lehigh/Heidelburg,Portland Cement,John Ellis,860-759-0517,N/A,"29 West First Street, Oswego, NY, 13126",Oswego,New York,#7A4A142,Terminal,N/A,Portland Cement,43.449403,-76.540692
Lehigh/Heidelburg,Portland Cement,N/A,N/A,N/A,N/A,N/A,N/A,#7A4A143,N/A,N/A,Portland Cement,39.7837304,-100.445882
Lafarge/Holcim,Portland Cement,N/A,419) 897-7676,N/A,"1135 Worden Road Wickliffe, OH 44092",Wickliffe,Ohio,#7A4A144,Warehouse,"<just attached numbers, unsure if",Portland Cement,41.616502,-81.4704303
Lafarge/Holcim,Portland Cement,N/A,(216) 781-9330,N/A,"2500 Elm Street Cleveland, OH 44113",Cleveland ,Ohio,#7A4A145,Terminal,Sales or terminal number,Portland Cement,41.496685,-81.70893
Lafarge/Holcim,Portland Cement,N/A,(740) 423-5900,N/A,"1684 State Route 618 Belpre, OH 45714",Belpre,Ohio,#7A4A146,Terminal,Looks Good ------>,Portland Cement,39.276467,-81.595425
Lafarge/Holcim,Portland Cement,N/A,(419) 897-7676,N/A,"11435 CR-176 Paulding, OH 45879",Paulding,Ohio,#7A4A147,N/A,Looks Good ------>,Portland Cement,40.96287,-84.079648
Lafarge/Holcim,Portland Cement,N/A,(614) 491-5873,N/A,"1801 Watkins Road Columbus, OH 43207",Columbus,Ohio,#7A4A148,Terminal,Looks Good ------>,Portland Cement,39.9041587,-82.9454979
Lafarge/Holcim,Portland Cement,N/A,(419) 241-2526,N/A,"840 Water Street Toledo, OH 43604",Toledo,Ohio,#7A4A149,Terminal,Looks Good ------>,Portland Cement,41.6551875,-83.5268635
Lafarge/Holcim,Portland Cement,N/A,(419) 897-7676,N/A,"21880 West State Route 163 Genoa, OH 43430",Genoa,Ohio,#7A4A150,Bagging Facility?,Looks Good ------>,Portland Cement,41.515476,-83.35299
Lafarge/Holcim,Portland Cement,N/A,(513) 251-5668,N/A,"3270 Southside Ave. Cincinnati, OH 45204",Cincinnati ,Ohio ,#7A4A151,Terminal,Looks Good ------>,Portland Cement,39.0831601,-84.5746103
Lafarge/Holcim,Portland Cement,N/A,(419) 897-7676,N/A,"30350 Wixom Road Wixom, MI 48393",Wixom,Michigan,#7A4A152,Terminal,Unsure,Portland Cement,42.515761,-83.537098
Lafarge/Holcim,Portland Cement,N/A,N/A,N/A,"1 Fort Martin Road Maidsville, WV 26508",Maidsville,West Virgina ,#7A4A153,N/A,Might be inactive----------->,Portland Cement,47.792182,-122.671785
Lafarge/Holcim,Portland Cement,N/A,(724) 366-7816,N/A,"Terminal Drive Weirton, WV 26062",Weirton,West Virgina ,#7A4A154,Terminal,N/A,Portland Cement,33.738709,-99.159514
Lafarge/Holcim,Portland Cement,N/A,(412) 922-2101,N/A,"1529 Chartiers Valley Lane Pittsburgh, PA 15205",Pittsburgh,Pennsylvania ,#7A4A155,Terminal,N/A,Portland Cement,40.4516929,-80.0901342
Lafarge/Holcim,Portland Cement,Ken Sienkiewicz,(313) 842-9258,N/A,"1301 Springwells Court Detriot, MI 48209",Detroit,Michigan,#7A4A156,Terminal/slag?,N/A,Portland Cement,42.391228,-83.00957
Lafarge/Holcim,Portland Cement,N/A,(502) 583-0616,N/A,"1310 W. Kentucky St. Louisville, KY 40210",Louisville,Kentucky,#7A4A157,Terminal,N/A,Portland Cement,38.2409463,-85.7744596
Lafarge/Holcim,Portland Cement,N/A,(419) 897-7676,N/A,"29925 County Road 20 West Elkhart, IN 46517",Elkhart,Indiana,#7A4A158,Terminal,N/A,Portland Cement,41.660373,-86.040047
Lafarge/Holcim,Portland Cement,N/A,(770)-476-3781,N/A,"3955 Buford Highway Duluth, GA 30096",Duluth,Georgia,#7A4A159,Terminal,N/A,Portland Cement,33.9771803,-84.1623266
Lafarge/Holcim,Slag Cement,N/A,205-568-9368,N/A,"1555 Hartman Industrial Blvd., Birmingham, AL 35221",Birmingham,Alabama,#7A4A160,Plant,N/A,Portland Cement,33.457653,-86.9030834
Lafarge/Holcim,Portland Cement,N/A,203-468-6068,N/A,"410 Waterfront St., New Haven, CT, 06512",New Haven,Connecticut,#7A4A161,Terminal,N/A,Portland Cement,41.2942933,-72.9025766
Lafarge/Holcim,Portland Cement,N/A,410-354-4707,N/A,"3800 Hawkins Point Rd., Baltimore, MD, 21226",Baltimore,Maryland,#7A4A162,Terminal,N/A,Portland Cement,39.202217,-76.551322
Lafarge/Holcim,Portland Cement,N/A,301-739-1150,N/A,"1260 Security Rd., Hagerstown, MD, 21742",Hagerstown,Maryland,#7A4A163,Plant,N/A,Portland Cement,39.648724,-77.6950173
Lafarge/Holcim,Portland Cement,N/A,617-241-9040,N/A,"285 Medford Street, Charlestown, MA, 02129",Charlestown,Massachusetts,#7A4A164,Terminal,N/A,Portland Cement,42.382381,-71.06115
Lafarge/Holcim,Portland Cement,N/A,413-599-4829,N/A,"2420 Boston Rd., Wilbraham, MA, 01095",Wilbraham,Massachusetts,#7A4A165,Terminal,N/A,Portland Cement,42.149754,-72.4491948
Lafarge/Holcim,Portland Cement,N/A,978-582-6300,N/A,"541 Leominster Road, Lunenburg, MA, 01462",Lunenburg,Massachusetts,#7A4A166,Terminal,N/A,Portland Cement,42.5745664,-71.726726
Lafarge/Holcim,Portland Cement,N/A,201-437-2575,N/A,"6 Commerce Street, Bayonne, NJ, 07002",Bayonne,New Jersey,#7A4A167,Terminal,N/A,Portland Cement,40.6520642,-74.0964484
Lafarge/Holcim,Portland Cement,N/A,716-854-5791,N/A,"575 Ohio Street, Buffalo, NY, 14203",Buffalo,New York,#7A4A168,Terminal,N/A,Portland Cement,42.861332,-78.8684688
Lafarge/Holcim,Portland Cement,N/A,718-499-9205,N/A,"75 25th Street, Brooklyn, NY, 11232",Brooklyn,New York,#7A4A169,Terminal,N/A,Portland Cement,40.6620815,-74.0005235
Lafarge/Holcim,Portland Cement,N/A,315-342-2872,N/A,"1 W. Van Buren Street, Oswego, NY 13126",Oswego,New York,#7A4A170,Terminal,N/A,Portland Cement,43.4590424,-76.5220279
Lafarge/Holcim,Portland Cement,N/A,518-756-5000,N/A,"1916 Route 9W, Ravena, NY, 12143",Ravena,New York,#7A4A171,Plant,N/A,Portland Cement,42.4982751,-73.8135826
Lafarge/Holcim,Portland Cement,N/A,704-399-3242,N/A,"7245 Old Mount Holly Rd., Charlotte, NC, 28214",Charlotte,North Carolina,#7A4A172,Terminal,N/A,Portland Cement,35.2782131,-80.927644
