Name,Material,Sales Contact,Contact Number,Email,Address,City,State,Latitude,Longitude,pin_color,Location_type,notes,service
"Mid Ohio Valley Lime, Inc.",Hydrate Lime,,888-837-6685,,14949 St Rte 7,Marietta,OH,39.392139,-81.404578,#F54927,Plant,,Pneumatic Trucking
Smith Trucking,,,,,,,,39.7837304,-100.445882,#F54928,,,Pneumatic Trucking
RRR,,,800-472-4714,,1195 Mauldin Rd,Calhoun ,GA ,34.5311893,-84.9437098,#F54929,,,Pneumatic Trucking
NAJ Trucking--never call competitive,,,,,,,,39.7837304,-100.445882,#F54930,,,Pneumatic Trucking
UST Transport,,Chuck Johnson,702-355-5323,chuck.johnson@us-transport.com,,,AZ,40.3936294,47.7872508,#F54931,,,Pneumatic Trucking
Apex Logistics LLC,,Joshua Vermillion,702-701-3643,josh.vermillion@apexlogisticsllc.com,9201 N 7th Street,Phoenix,AZ,33.569724,-112.065114,#F54932,,,Pneumatic Trucking
CTI Dry Bulk Hauling,,,317-783-0700,,121 Premier Drive,Belleville,IL,38.5020719,-89.9442369,#F54933,,,Pneumatic Trucking
Superior Bulk,,Jeremy Jondahl,602-828-3257,,,,AZ,40.3936294,47.7872508,#F54934,,,Pneumatic Trucking
Main Office,,,,,3105 N Maples St.,Mesa,AZ,33.32865,-111.583739,#F54935,,,Pneumatic Trucking
Glendale Yard,,,,,6500 N Agua Fria Shore,Glendale,AZ,33.530154,-112.307063,#F54936,,,Pneumatic Trucking
Kingman Yard,,,,,2301 Shinarump Dr.,Kingman,AZ,35.156397,-114.140841,#F54937,,,Pneumatic Trucking
Sloan Yard,,,,,Water Well Drill Rd.,Sloan,NV,35.9315427,-115.2044935,#F54938,,,Pneumatic Trucking
Tucson Yard,,,,,5400 W Massingale Rd.,Tucson,AZ,32.344991,-111.07831,#F54939,,,Pneumatic Trucking
Dry Run Trucking,,Kris Pietsch,602-388-3675,,6741 W Rock Solid Way,Chandler,AZ,33.297731,-111.758075,#F54940,,,Pneumatic Trucking
J&E,,Jerry,505-304-7179,,165 Escondido St.,Hatch,NM,32.671807,-107.155473,#F54941,,,Pneumatic Trucking
K Trucking,,James,928-243-1042,,,,East AZ/NM,33.3492243,-104.4379752,#F54942,,,Pneumatic Trucking
Trinity Logistics,,Bailie Paulus,763-276-4306,bpaulus@trinitylogisticsmn.com,,,All US,40.8077797,-84.0572225,#F54943,,Office: 612-314-2433,Pneumatic Trucking
Corporate Office,,,800-846-3400,,50 Fallon Avenue,Seaford,DE,38.6578568,-75.5992025,#F54944,,,Pneumatic Trucking
Scottsdale,,,855-830-6827,,8655 E Via De Ventura Suite E-250,Scottsdale,AZ,33.554003,-111.896175,#F54945,,,Pneumatic Trucking
Orlando,,,407-852-7299,,5422 Carrier Dr. Suite 304,Orlando ,FL,28.4572838,-81.4527067,#F54946,,,Pneumatic Trucking
Urbandale,,,515-207-1401,,4320 114th St. ,Urbandale,IA,41.6387943,-93.7752216,#F54947,,,Pneumatic Trucking
Kansas City,,,800-210-3000,,7200 NW 86th Street Suite N,Kansas City,MO,39.2504873,-94.6661179,#F54948,,,Pneumatic Trucking
Fort Worth,,,877-346-4455,,14800 Trinity Blvd. Suite 110,Fort Worth,TX,32.82077,-97.0457888,#F54949,,,Pneumatic Trucking
TKM Materials,,Terry,931-260-0008,terry@TKMMaterials.com,1806 N Court Street,Marion,IL,37.7466424,-88.9327335,#F54950,,,Pneumatic Trucking
Venezia Bulk Transport Inc.,,,610-587-1005,apual@veneziainc.com,,,TN/Carolinas,48.7604746,-122.4512209,#F54951,,,Pneumatic Trucking
Keene Carriers,,,276-880-1206,,13950 US HWY 19,Rosedale,VA,36.9779347,-81.8725704,#F54952,,,Pneumatic Trucking
Taylor Transport Inc.,,,770-387-7500,contact@taylortruck.net,1708 GA-113 ,Cartersville,GA,34.1369063,-84.8450233,#F54953,,,Pneumatic Trucking
Parker Nall Perdido Trucking Service,,,251-508-3779,pnall@perdidotrucking.com,56 Midtown Park West,Mobile,AL/Gulf,35.56043,-79.28169,#F54954,,,Pneumatic Trucking
Evergreen Transport,,JR Dykes,205-936-0359,,"41 West I-65 Service Rd. North, Suite 300",Mobile,AL/Gulf,30.69436,-88.04305,#F54955,,,Pneumatic Trucking
Johnston Trucking LLC,,Luke,334-735-2283,luke@johnstontrucking.com,US 231 Business,Brundidge,AL/Gulf,35.56043,-79.28169,#F54956,,,Pneumatic Trucking
Rodgers Cartage Co.,,,205-621-9098,,176 Longview Cir,Calera,AL/Gulf,35.56043,-79.28169,#F54957,,Primary Line: 1-800-507-8848,Pneumatic Trucking
Get Up & Go Pronto Transportation--call to confirm information,,,205-600-4077,,1720 Hurricane Rd Lot 18,Cottondale,AL/Gulf,35.56043,-79.28169,#F54958,,,Pneumatic Trucking
Triple K Trucking--call to confirm information,,,205-202-9403,,,,AL/Gulf,31.3564331,-85.3276842,#F54959,,,Pneumatic Trucking
MLC Trucking,,,,,,,,39.7837304,-100.445882,#F54960,,,Pneumatic Trucking
Ste. Genevieve,,,,,16136 Highway 61,Ste. Genevieve ,MO,37.979526,-90.075731,#F54961,,,Pneumatic Trucking
Vicksburg,,,,,1543 Haining Rd.,Vicksburg,MS,32.3916788,-90.8892064,#F54962,,,Pneumatic Trucking
Verona,,,,,525 Hance Rd.,Verona,KY,38.829698,-84.758687,#F54963,,,Pneumatic Trucking
Weirton,,,,,3001 Birch Dr,Weirton,WV,40.387193,-80.618053,#F54964,,,Pneumatic Trucking
Chester,,,,,1544 Beltline Rd.,Chester,SC,34.7097104,-81.1343334,#F54965,,,Pneumatic Trucking
Journey LTD,,,,,,,,39.7837304,-100.445882,#F54966,,,Pneumatic Trucking
Tatum's Hauling,,,804-561-6563,tatumshauling1984@gmail.com,21520 Patrick Henry Highway,Jetersville,VA,37.2893301,-78.1050068,#F54967,,,Pneumatic Trucking
Summit Trucking,,,214-631-3080,,1358 Medical District Drive,Dallas,TX,32.8039923,-96.8405028,#F54968,,,Pneumatic Trucking
Bob's Moraine Trucking,,,937-746-8420,orders@bmtinc.us,8231 Claude Thomas Road,Franklin,OH,39.5633495,-84.2726533,#F54969,,Delivers within 250 mile radius of Franklin Ohio,Pneumatic Trucking
Klink Trucking,,,260-587-9113,klink@klinktrucking.com,3320 W 800 S,Ashley,IN,41.527165,-85.041701,#F54970,,,Pneumatic Trucking
Able Bulk Carriers,,Adam Fratianne,440-413-8674,adam@ablebulkcarriers.com,925 Callendar Blvd.,Painesville,OH,41.7252141,-81.2839797,#F54971,,,Pneumatic Trucking
Tully Transport,,,606-564-3129,,8027 KY Highway 3161 Rd.,Maysville,OH,41.079502,-84.037882,#F54972,,,Pneumatic Trucking
Mid Ohio Valley Lime,,,740-373-2481,,14949 State Route 7,Marietta,OH,39.392139,-81.404578,#F54973,,,Pneumatic Trucking
SCH Services-call to verify contact info,,,800-547-9918,info@sch-ces.com,1650 Murfreesboro Rd.,Franklin,TN,35.9031989,-86.792546,#F54974,,,Pneumatic Trucking
Wooster Motor Ways,,,330-264-7690,,3501 West Old Lincoln Way,Wooster,OH,40.7993199,-81.9617845,#F54975,,,Pneumatic Trucking
Wayne W Sell,,Tom Weleski,800-444-4997,,236 Winfield Road,Sarver,PA,40.759788,-79.783791,#F54976,,,Pneumatic Trucking
Journey Trucking,,,888-726-9979,info@journeytrucking.com,11418 N Dixie Drive,Vandalia,OH,39.9143935,-84.1989871,#F54977,,,Pneumatic Trucking
Tripp Trucking--call to verify,,Jeffrey Bernard Tripp,706-453-4165,,1030 Charity Drive,Greensboro,GA,33.5722922,-83.1950866,#F54978,,,Pneumatic Trucking
Whitetail Trucking--call to verify,,,757-342-6654,,15203 Wyatt CT,Carrollton,VA,36.9291052,-76.5510709,#F54979,,,Pneumatic Trucking
US Bulk Transport,,,800-609-6611,info@usbulktransport.com,205 Pennbriar Drive,Erie,PA,42.0740083,-80.0390704,#F54980,,,Pneumatic Trucking
Beelman Truck CO,,,877-945-6688,,1 Racehorse Drive,East St. Louis,IL,39.1247,-88.542062,#F54981,,,Pneumatic Trucking
Bowman Logistics,,,240-625-2799,,10228 Governor Lane Boulevard Suite #3006 ,Williamsport,MD,39.596653,-77.804723,#F54982,,,Pneumatic Trucking
Crystal Trucking--call to verify,,,847-553-1592,,1491 S 6th Avenue,Des Plaines,IL,42.025871,-87.9076608,#F54983,,,Pneumatic Trucking
ECI Trucking,,,,,,,,39.7837304,-100.445882,#F54984,,,Pneumatic Trucking
Sams Hauling and Trucking,,,865-982-8011,,2394 Wildwood Rd,Maryville,TN,35.784281,-83.943277,#F54985,,,Pneumatic Trucking
McDowell ,,,307-797-4278,,,,,39.7837304,-100.445882,#F54986,,,Pneumatic Trucking
Global Construction Transport,,Darrell Simmons,317-667-3350,,2066 S Raber Road,Columbia City,IN,41.131657,-85.454366,#F54987,,,Pneumatic Trucking
Henderson Trucking,,Mike,740-369-6100,mike@hendersontrucking.com,124 Henderson CT,Delaware,OH,40.2815072,-83.087251,#F54988,,,Pneumatic Trucking
Bulk Transit,,,614-873-4632,info@bulktransit.com,7177 Industrial Parkway,Plain City,OH,40.114807,-83.187372,#F54989,,,Pneumatic Trucking
Khunle Trucking,,,440-564-7168,,14905 Cross Creek Pkwy,Newbury,OH,41.4614912,-81.2685002,#F54990,,,Pneumatic Trucking
Predator,,,1-800-235-5624,,3181 Trumbull Avenue,McDonald,OH,41.157268,-80.736376,#F54991,,,Pneumatic Trucking
R&J Trucking,,,330-758-0841,,8063 Southern Blvd.,Boardman,OH,41.0045573,-80.6533587,#F54992,,,Pneumatic Trucking
Bulkmatic,,,800-535-8505,,2001 North Cline Avenue,Griffith,IN,41.5300744,-87.4325106,#F54993,,,Pneumatic Trucking
RSA Transport,,,724-545-1407,,1131 Freeport Road,Kittanning ,PA,40.769629,-79.639452,#F54994,,,Pneumatic Trucking
SEFA,,Kerry Burke,803-530-2825,kburke@sefagroup.com,9639 Highmarket Street,Georgetown,SC,33.3687424,-79.2813641,#F54995,,,Pneumatic Trucking
DRI Bulk Transport Company,,,,,8063 Southern Blvd.,Youngstown,OH,41.0635833,-80.6567926,#F54996,,,Pneumatic Trucking
SRS,,,,,,,,39.7837304,-100.445882,#F54997,,,Pneumatic Trucking
Sids Trucking,,,,,,,,39.7837304,-100.445882,#F54998,,,Pneumatic Trucking
Pickett Concrete,,Jim Galloway,7405329123,pickettconcrete@frontier.com,4127 Westward Avenue,Columbus,OH,39.9709161,-83.1132169,#F54999,,,Pneumatic Trucking
United Rentals - Columbiana,,Timothy Dohn,(330) 482-1100,,44691 State Route 14,Columbiana,OH,40.8787137,-80.5987213,#2F4A6D,,,Equipment Rental
United Rentals - East Liverpool,,Timothy Dohn,(330) 385-5381,,16695 Lisbon St,E Liverpool,OH,40.6348265,-80.5920179,#2F4A6D,,,Equipment Rental
United Rentals - Marietta,,Tracey Ayers,(740) 373-5161,,1205 Pike St,Marietta,OH,39.4108387,-81.4308085,#2F4A6D,,,Equipment Rental
United Rentals - Marietta,,Tracey Ayers,(740) 373-3292,,18417 Sate Route 7,Marietta,OH,39.392139,-81.404578,#2F4A6D,,,Equipment Rental
United Rentals - Perrysburg,,Michael Lowell,(419) 874-3141,,620 Eckel Rd,Perrysburg,OH,41.5446752,-83.6445793,#2F4A6D,,,Equipment Rental
United Rentals - Coventry Twp,,Mark Walker,(330) 724-7635,,2292 S. Arlington Rd,Coventry Twp,OH,41.008537,-81.4920542,#2F4A6D,,,Equipment Rental
United Rentals - Dayton,,Richard Hart,(937) 235-5395,,5773 Executive Blvd.,Dayton,OH,39.872304,-84.134395,#2F4A6D,,,Equipment Rental
United Rentals - Cincinnati,,Scott Rudolph,(513) 346-2800,,898 East Crescentville Rd,Cincinnati,OH,39.301624,-84.453517,#2F4A6D,,,Equipment Rental
United Rentals - Cleveland,,Joseph Pannitto,(216) 749-3400,,13960 Brookpark Rd,Cleveland,OH,41.4187168,-81.7249285,#2F4A6D,,,Equipment Rental
United Rentals - Columbus,,Joshua Sets,(614) 279-6352,,1825 McKenley Ave.,Columbus,OH,39.964189,-83.050801,#2F4A6D,,,Equipment Rental
United Rentals - Groveport,,Jordan Denson,(614) 335-5356,,4141 Hamilton Square,Groveport,OH,39.869018,-82.884914,#2F4A6D,,,Equipment Rental
United Rentals - Westerville,,Brandon Gerhardt,(614) 541-2696,,5755 Westeville Rd,Westerville,OH,40.05986,-84.020759,#2F4A6D,,,Equipment Rental
United Rentals - Dublin,,Nicholas Toups,(614) 335-5357,,7570 Fishel Dr S,Dublin,OH,40.102689,-83.192341,#2F4A6D,,,Equipment Rental
United Rentals - West Chester,,Josh Straight,(513) 845-0150,,4764 Ashley Dr,West Chester,OH,39.3261206,-84.4643306,#2F4A6D,,,Equipment Rental
United Rentals - Lynchburg,,Roger Castillo,(434) 846-7368,,3560 Young Pl,Lynchburg,VA,37.3659952,-79.1664972,#2F4A6D,,,Equipment Rental
United Rentals - Fredericksburg,,Kevin Sledziona,(540) 710-5370,,4616 Lassen LN,Fredericksburg,VA,38.25999,-77.495127,#2F4A6D,,,Equipment Rental
United Rentals - Covington,,David Vincent,(540) 965-6569,,807 Grayson Ave,Covington,VA,37.777041,-79.970099,#2F4A6D,,,Equipment Rental
United Rentals - Winchester,,James Hartness,(540) 545-8383,,287 Welltown CT,Winchester,VA,39.231613,-78.143174,#2F4A6D,,,Equipment Rental
United Rentals - Manassas,,Ricky Lamot,(703) 368-6065,,9415 Wellington Rd,Manassas,VA,38.7517787,-77.4925396,#2F4A6D,,,Equipment Rental
United Rentals - Manassas,,Ricky Lamot,(703) 656-2130,,9485 Contractors CT,Manassas,VA,38.749404,-77.545065,#2F4A6D,,,Equipment Rental
United Rentals - Christiansburg,,Susan Stanger,(540) 382-9036,,1570 Radford Rd,Christianburg,VA,37.54812,-77.44675,#2F4A6D,,,Equipment Rental
United Rentals - Harrisonburg,,Jeremy Bryant,(540) 433-0011,,141 Leray CR,Harrisonburg,VA,38.548438,-78.794066,#2F4A6D,,,Equipment Rental
United Rentals - Chesapeake,,Pamela Newbern,(757) 543-5723,,4333 Bainbridge Blvd,Chesapeake,VA,36.7778964,-76.2839273,#2F4A6D,,,Equipment Rental
United Rentals - Glen Allen,,Audrey Bondurant,(804) 550-2978,,10374 Washington Hwy,Glen Allen,VA,37.6771618,-77.5027925,#2F4A6D,,,Equipment Rental
United Rentals - Hampton,,Paul Reca,(757) 247-5891,,2327 W Pembroke Ave,Hampton,VA,37.0034706,-76.3978665,#2F4A6D,,,Equipment Rental
United Rentals - Chester,,Michael Lotti,(804) 768-2266,,11200 Iron Bridge Rd,Chester,VA,37.3497001,-77.4719805,#2F4A6D,,,Equipment Rental
United Rentals - Sterling,,Michael Chaney,(703) 327-2800,,23535 Overland Drive,Sterling,VA,38.960426,-77.503131,#2F4A6D,,,Equipment Rental
United Rentals - Roanoke,,Michael Damiano,(540) 345-8665,,1238 Orange Ave,Roanoke,VA,37.28458,-79.9204786,#2F4A6D,,,Equipment Rental
United Rentals - Charlottesville,,Christopher Caole,(434) 977-8196,,1745 Avon Street Ext,Charlottesville,VA,37.9976977,-78.4988354,#2F4A6D,,,Equipment Rental
United Rentals - Newport News,,Waylon Wakefield,(757) 874-5013,,600 Industrial Park,Newport News,VA,37.164591,-76.5399755,#2F4A6D,,,Equipment Rental
United Rentals - Triangle,,Sunny Thapa,(703) 221-4000,,18309 Richmond Hwy,Triangle,VA,38.5510721,-77.3338602,#2F4A6D,,,Equipment Rental
United Rentals - Richmond,,Charles Drummond,(804) 233-7368,,1500 Commerce Rd,Richmond,VA,37.5086244,-77.4289088,#2F4A6D,,,Equipment Rental
United Rentals - Richmond,,Charles Drummond,(804) 288-0018,,6520 W Broad St,Richmond,VA,37.5611575,-77.4677491,#2F4A6D,,,Equipment Rental
United Rentals - Virginia Beach,,Jason Guida,(757) 974-0200,,1344 Taylor Farm Rd,Virginia Beach,VA,36.7953786,-76.062974,#2F4A6D,,,Equipment Rental
United Rentals - State College,,Jeffrey Knott,(814) 237-3325,,1005 W College Ave,State College,PA,40.7863024,-77.8729262,#2F4A6D,,,Equipment Rental
United Rentals - Washington,,Andrea Mueller,(724) 225-6200,,1600 Jefferson Ave,Washington,PA,40.18844,-80.272922,#2F4A6D,,,Equipment Rental
United Rentals - Lancaster,,John Aversa,(717) 393-8969,,1550 Commerce Dr,Lancaster,PA,40.0788179,-76.3408597,#2F4A6D,,,Equipment Rental
United Rentals - Duncansville,,Jeffrey Knott,(814) 696-4151,,667 Broad St,Duncansville,PA,40.432727,-78.434995,#2F4A6D,,,Equipment Rental
United Rentals - Allentown,,Michael Lynn,(610) 791-9870,,2201 28th St SW,Allentown,PA,40.5620331,-75.4792481,#2F4A6D,,,Equipment Rental
United Rentals - Clairton,,David Kline,(412) 226-6010,,221 State St,Clairton,PA,40.2994363,-79.8762233,#2F4A6D,,,Equipment Rental
United Rentals - Oakdale,,Ronald Cooper,(724) 695-9293,,2000 Imperial Industrial Park,Oakdale,PA,40.403974,-80.189137,#2F4A6D,,,Equipment Rental
United Rentals - Butler,,David Ferroni,(724) 586-5500,,601 Pittsburgh Rd,Butler,PA,40.761935,-79.9239,#2F4A6D,,,Equipment Rental
United Rentals - Mechanicsburg,,Larry Heagy,(717) 766-4713,,825 Gettysburg Rd,Mechanicsburg,PA,40.204286,-76.9663647,#2F4A6D,,,Equipment Rental
United Rentals - Philadelphia,,Michael Myers,(215) 744-4510,,3880 E. Thompson St,Philadelphia,PA,39.9935363,-75.0872298,#2F4A6D,,,Equipment Rental
United Rentals - York,,Justus Shearer,(717) 767-6448,,4 Interchange Pl,York,PA,40.0190858,-76.7400479,#2F4A6D,,,Equipment Rental
United Rentals - Hanover Twp,,Michael Biesecker,(570) 825-4786,,2225 Sans Souci Parkway,Hanover Twp,PA,41.2097534,-75.9727864,#2F4A6D,,,Equipment Rental
United Rentals - Montoursville,,Brian McLauchlin,(570) 601-4484,,2968 Barneys Dr,Montoursville,PA,41.249579,-76.937153,#2F4A6D,,,Equipment Rental
United Rentals - Conshohocken,,Kenneth Murphy,(610) 279-5777,,1010 Conshohocken Rd,Conshohocken,PA,40.0665176,-75.3071928,#2F4A6D,,,Equipment Rental
United Rentals - Eddystone,,Brian Bartoszek,(610) 497-2290,,3000 Industrial Highway,Eddystone,PA,39.8583551,-75.3383968,#2F4A6D,,,Equipment Rental
United Rentals - West Chester,,Louis Sordini,(610) 942-0482,,800 E Virginia Ave,West Chester,PA,39.9729603,-75.5965936,#2F4A6D,,,Equipment Rental
United Rentals - Allentown,,Wayne Lenhart,(484) 551-5000,,211 Lloyd St,Allentown,PA,40.6342512,-75.4364747,#2F4A6D,,,Equipment Rental
United Rentals - Utica,,Jason Schelle,(586) 731-7070,,12000 23 Mile Road,Utica,MI,42.669683,-83.010221,#2F4A6D,,,Equipment Rental
United Rentals - Saginaw,,Alex Payne,(989) 900-0730,,2805 Diesel Park Dr,Saginaw,MI,43.414783,-83.929981,#2F4A6D,,,Equipment Rental
United Rentals - Negaunee,,Bobby Johnson,(906) 225-7346,,363 East US 41,Negaunee,MI,46.5063951,-87.607219,#2F4A6D,,,Equipment Rental
United Rentals - Romulus,,Daniel Dewar,(734) 955-9291,,13461 Huron River Drive,Romulus,MI,42.2050182,-83.404347,#2F4A6D,,,Equipment Rental
United Rentals - Grand Rapids,,Daniel Flynn,(616) 364-7031,,2122 Turner Ave. NW,Grand Rapids,MI,42.9955502,-85.6783149,#2F4A6D,,,Equipment Rental
United Rentals - Lansing,,Richard Toaso,(517) 318-0729,,3524 Canal Road,Lansing,MI,42.6961549,-84.663133,#2F4A6D,,,Equipment Rental
United Rentals - Huntington,,Caleb Adams,(304) 429-1260,,1501 Jackson Ave,Huntington,WV,38.406703,-82.479492,#2F4A6D,,,Equipment Rental
United Rentals-Bridgeport,,Mark Garrison,304-848-3910,,1978 Meadowbrook Rd.,Bridgeport,WV,39.3443908,-80.2991885,#2F4A6D,,,Equipment Rental
United Rentals- Beckley,,David Vincent,304-255-6785,,307 N Eisenhower Dr.,Beckley,WV,37.7842205,-81.169741,#2F4A6D,,,Equipment Rental
United Rentals-Cross Lanes,,Steven Tankersley,304-776-7158,,573 New Goff Mountain Rd.,Cross Lanes,WV,38.403825,-81.78992,#2F4A6D,,,Equipment Rental
United Rentals -Princeton,,Albert Minter,304-487-3809,,319 Oakvale Rd.,Princeton,WV,37.3664724,-81.0734009,#2F4A6D,,,Equipment Rental
Columbus Equipment Co,,Corp. Office,614-443-6541,info@columbusequipment.com,2323 Performance Way,Columbus,OH,39.9180612,-82.9390957,#2F4A6D,,,Equipment Rental
Cadiz,,,740-942-8871,info@columbusequipment.com,290 Old Steubenville Pike,Cadiz,OH,40.2835859,-80.9841377,#2F4A6D,,,Equipment Rental
Cincinnati,,,513-771-3922,info@columbusequipment.com,712 Shepherd Ave.,Cincinnati ,OH,39.233699,-84.447081,#2F4A6D,,,Equipment Rental
Dayton,,,937-879-3154,info@columbusequipment.com,7570 New Carlisle Pike,Dayton,OH,39.858533,-84.060708,#2F4A6D,,,Equipment Rental
Massillon,,,330-833-2420,info@columbusequipment.com,2200 Venture Circle SE,Massillon,OH,40.7702344,-81.4783082,#2F4A6D,,,Equipment Rental
Piketon,,,740-289-3757,info@columbusequipment.com,3668 US Route 23 South,Piketon,OH,39.010704,-83.025986,#2F4A6D,,,Equipment Rental
Richfield,,,330-659-6681,info@columbusequipment.com,3942 Brecksville Rd.,Richfield,OH,41.2434784,-81.6379853,#2F4A6D,,,Equipment Rental
Perrysburg,,,419-872-7101,info@columbusequipment.com,12500 Williams Rd.,Perrysburg,OH,41.5291952,-83.6330293,#2F4A6D,,,Equipment Rental
Zanesville,,,740-455-4036,info@columbusequipment.com,818 Lee St.,Zanesville,OH,39.9440544,-82.0167139,#2F4A6D,,,Equipment Rental
ABC Equipment,,,,,,,,39.7837304,-100.445882,#2F4A6D,,,Equipment Rental
Brunswick Store,,,330-220-4545,,29 Pearl Rd.,Brunswick,OH,41.275001,-81.836159,#2F4A6D,,,Equipment Rental
Avon Store,,,440-934-7368,,38525 Chester Rd.,Avon,OH,41.466892,-82.0539748,#2F4A6D,,,Equipment Rental
Sunbelt Rentals,,,,,,,,39.7837304,-100.445882,#2F4A6D,,,Equipment Rental
Cleveland,,,216-415-3230,pcm361@sunbeltrentals.com,18200 S Waterloo Rd.,Cleveland,OH,41.5761302,-81.5522257,#2F4A6D,,,Equipment Rental
Peninsula,,,330-650-9090,pcm212@sunbeltrentals.com,5162 Akron Cleveland Rd.,Peninsula,OH,41.209137,-81.49291,#2F4A6D,,,Equipment Rental
Cortland,,,330-372-5100,pcm1080@sunbeltrentals.com,2229 State Route 5,Cortland,OH,41.285901,-80.767691,#2F4A6D,,,Equipment Rental
Cleveland,,,216-362-0300,pcm242@sunbeltrentals.com,13800 Brookpark Rd.,Cleveland,OH,41.4202435,-81.8408409,#2F4A6D,,,Equipment Rental
Akron,,,330-724-2100,pcm1110@sunbeltrentals.com,676 E Waterloo Rd.,Akron,OH,41.0293326,-81.501112,#2F4A6D,,,Equipment Rental
Hermitage,,,724-981-5800,pcm1875@sunbeltrentals.com,2976 E State St,Hermitage,PA,41.2329675,-80.4549403,#2F4A6D,,,Equipment Rental
Elyria,,,440-324-1855,pcm552@sunbeltrentals.com,6438 Lorain Blvd.,Elyria,OH,41.4087687,-82.1179296,#2F4A6D,,,Equipment Rental
Canton,,,330-305-5200,ethan.zerk@sunbeltrentals.com,2600 Harrison Ave NW,Canton,OH,40.824847,-81.3938562,#2F4A6D,,,Equipment Rental
Meadville,,,814-336-2336,pcm1481@sunbeltrentals.com,1355 S Main St.,Meadville,PA,41.6269473,-80.1543113,#2F4A6D,,,Equipment Rental
New Castle,,,724-658-2400,alex.kilgore@sunbeltrentals.com,3587 Clover Ln.,New Castle,PA,41.068617,-80.3626586,#2F4A6D,,,Equipment Rental
Warrendale,,,724-553-7335,shaun.byrne@sunbeltrentals.com,215 Thorn Hill Rd.,Warrendale,PA,40.667147,-80.102147,#2F4A6D,,,Equipment Rental
Ontario,,,419-747-1000,pcm209@sunbeltrentals.com,2145 Walker Lake Rd.,Ontario,OH,40.7867288,-82.5912365,#2F4A6D,,,Equipment Rental
Pittsburgh,,,412-364-8630,pcm238@sunbeltrentals.com,5700 Grand Ave.,Pittsburgh,PA,40.475115,-80.025004,#2F4A6D,,,Equipment Rental
Imperial,,,724-227-3070,pcm1618@sunbeltrentals.com,40 Pattridge Ln.,Imperial,PA,40.434131,-80.252205,#2F4A6D,,,Equipment Rental
Atlantic Equipment,,,800-543-3350,info@atlanticeq.com,146 Railroad St.,Revere,MA,42.4026252,-71.0053091,#2F4A6D,,,Equipment Rental
Beltsville,,,240-621-1701,Cthompson@atlanticeq.com,"12104 Indian Creek Court, Suite H",Beltsville,MD,39.0570124,-76.8976164,#2F4A6D,,,Equipment Rental
Tampa,,,813-820-1181,wphaneuf@atlanticeq.com,4764 Distribution Dr Floor 1,Tampa,FL,27.9568194,-82.4062562,#2F4A6D,,,Equipment Rental
Orlando,,,800-331-2134,britchings@atlanticeq.com,1801 Acme St.,Orlando,FL,28.5279458,-81.4035852,#2F4A6D,,,Equipment Rental
Albany,,,518-729-5527,hedwards@atlanticeq.com,21 Railroad Ave Suit B ,Albany,NY,42.637973,-73.773496,#2F4A6D,,,Equipment Rental
The Shelly Company,,,,info@shellyco.com,,,,39.7837304,-100.445882,#2F5D50,,,Asphalt Plant
Alliance Rail Office,Aggregates,Hannah Lightener,(216) 618-1945,Hannah.Lightener@shellyco.com,2000 Beeson Street,Alliance,OH  44601,40.923507,-81.1345205,#2F5D51,,,Asphalt Plant
Athens Office/Facility,Ready Mix,Nick Hayek ,(740) 516-5651,,5240 Hebbardsville Road,Athens,OH  45701,39.276233,-82.154096,#2F5D52,,,Asphalt Plant
Auglaize Office/Facility,"aggregates, aglime",Dale Mathew ,(419) 303-5431,,13762 Road 179,Oakwood,OH  ,41.3579298,-81.4938912,#2F5D53,,,Asphalt Plant
Bedford Hts Office/Facility,"aggregates, aglime",Hannah Lightener,(216) 618-1945,,5444 Perkins Road,Bedford Hts,OH  44146,41.4118291,-81.49848,#2F5D54,,,Asphalt Plant
Belle Center Office/Facilities,"aggregates, asphalt",Shawn Scott,(419) 466-8750,,1558 County Road 105,Belle Center ,OH  43310,40.4771724,-83.7554978,#2F5D55,,,Asphalt Plant
Belpre Ofice/Facility,"Aggregates, Ready mix",Nick Hayek ,(740) 516-5651,,1680 St. Rte. 618,Belpre,OH  45714,39.276468,-81.59541,#2F5D56,,,Asphalt Plant
Brunswick Office/Facility,Ready Mix,Hal Lane                 Jack Shear, (330) 801-9980     (330) 321-8095,,1501 Industrial Pkwy South,Brunswick,OH  44212,41.104846,-81.4802493,#2F5D57,,,Asphalt Plant
Buckland Office/Facility,Asphalt,Dale Mathew  ,(419)303-5431,,18429 Main Street Road,Buckland,OH  45895,40.6019715,-84.267797,#2F5D58,,,Asphalt Plant
Cadiz Office/Facility,Ready Mix, Brian Shepherd , (330) 607-0228,,8799 Toot Road,Cadiz,OH  43907,40.3405572,-80.9825526,#2F5D59,,,Asphalt Plant
Cambridge Office/Facility,Ready Mix,Jeff Griffith , (740) 516-4330,,61539 Southgate Pkwy,Cambridge,OH  43725,39.98994,-81.573332,#2F5D60,,,Asphalt Plant
Canton Aggregate,Aggregates,Hannah Lightener,(216) 618-1945,,2905 Columbus Rd NE,Canton,OH  ,40.8382093,-81.3336829,#2F5D61,,,Asphalt Plant
Cardinal Office/Facility,Aggregates,Sam Schmitz ,(419) 392-2091,,8026 Fremont Pike,Perrysburg,OH  43551,41.5276961,-83.5490097,#2F5D62,,,Asphalt Plant
Carey Office/Facility,"Aggregates, aglime",Shawn Scott,(419) 466-8750,,1794 County Hwy 99,Carey,OH  ,40.963693,-83.368405,#2F5D63,,,Asphalt Plant
Carrollton Office/Facility,Ready Mix,Dale Mathew ,(419) 303-5431,,1031 Kensington Road NE,Carrollton,OH  44615,40.590686,-81.080011,#2F5D64,,,Asphalt Plant
Celina Office/Facility,"Aggregates, aglime, asphalt",Dale Mathew ,(419) 303-5431,,6430 Karch Road,Celina,OH  ,40.536297,-84.657119,#2F5D65,,,Asphalt Plant
Chillicothe Office/Facilities,"aggregates,            asphalt",Randy Grooms            Troy Stegner ,740) 775-3751                 (614) 437-2359,,1177 Hopetown Road,Chillicothe,OH,39.38019,-82.985015,#2F5D66,,,Asphalt Plant
Circleville Office/Facility,Asphalt,Troy Stegner ,(614) 437-2359,,24537 Canal Road,Circleville,OH ,39.561659,-82.986744,#2F5D67,,,Asphalt Plant
Clay Center Office/Facility,"Aggregates, aglime",Sam Schmitz ,(419) 392-2091,,3800 North Bolander Road,Clay Center,OH  43408,41.5683054,-83.3684096,#2F5D68,,,Asphalt Plant
Cleveland Harrison Office/Facility,Asphalt,Jeremy Mantz,(330)-405-7677,,650 Harrison Street,Cleveland,OH  44113,41.4897328,-81.688108,#2F5D69,,,Asphalt Plant
Cleveland West 150th Office Facility,Asphalt,Hannah Lightener,(216) 618-1945,,4900 West 150th,Cleveland,OH  44135,41.419715,-81.802629,#2F5D70,,,Asphalt Plant
Cleveland West 3rd Office/Facility,,Hannah Lightener,(216) 618-1945,,2214 West 3rd Street,Cleveland,OH  44113,41.487059,-81.6846694,#2F5D71,,,Asphalt Plant
Columbus Area Hard Fill,Aggregates,Ed Beach ,(614) 437-2325,,2506 Jackson Pike,Columbus,OH  43223,39.9056316,-83.0231797,#2F5D72,,,Asphalt Plant
Columbus Limestone Office/Facility,Aggregates,Jake Bush          Shawn Scott ,(740) 739-1654                  (419) 466-8750,,3300 Jackson Pike,Grove City,OH  43123,39.8906923,-83.0270247,#2F5D73,,,Asphalt Plant
Copley Office/Facilities,"aggregates, asphalt",Hannah Lightener,(216) 618-1945,,3350 Sawmill Road,Akron(Copley),OH  44321,40.6370081,-82.7776816,#2F5D74,,,Asphalt Plant
Coshocton Office/Facilities,Aggregates            Asphalt                   Ready mix,Todd Achauer                Troy Stegner            Jeff Griffith,(740) 819-3506      (614) 437-2359      (740) 516-4330,,45500 County Road 23,Coshocton,OH  ,40.3036468,-81.9124627,#2F5D75,,,Asphalt Plant
Cumberland Limestone,"Aggregates, Aglime",Todd Achauer,(740)819-3506,,53681 Spencer Road,Cumberland,OH  43732,39.8752776,-81.6747175,#2F5D76,,,Asphalt Plant
Derwent Office/Facility,Aggregates,Matt Ross              Todd Achauer,(740)253-0533         (740)819-3506,,11167 Clay Pike Road,Derwent,OH  43733,39.9207812,-81.5364657,#2F5D77,,,Asphalt Plant
Dorr Street Office/Facility,Asphalt,Scott Rychener, (419) 466-5387,,2435 Dorr Street,Toledo,OH  43607,41.652781,-83.6035935,#2F5D78,,,Asphalt Plant
Dover Office/Facility,Ready Mix,Brian Shepherd ,(330) 607-0228,,142 South Tuscarawas Avenue,Dover,OH  44622,40.5164567,-81.4745411,#2F5D79,,,Asphalt Plant
Dover Ready Mix Concrete Div.,Division Office,,(330) 364-4411,,2301 Progress Steet,Dover,OH  44622,40.54251,-81.499899,#2F5D80,,,Asphalt Plant
East Fultonham Office/Facilities,Aggregates             asphalt                 aglime                ,Todd Achauer         Troy Stegner           sales,(740) 819-3506               (614) 437-2359              (740) 849-2338,todd.achauer@shellyco.com,6305 Saltillo Road,East Fultonham,OH   43735,39.8466267,-82.1308341,#2F5D81,,,Asphalt Plant
Findlay Office/Facility,Asphalt,Scott Rychener, (419) 466-5387,,10148 County Road 313,Findlay,OH  ,41.0555482,-83.6761551,#2F5D82,,,Asphalt Plant
Forest Office/Facility,"Aggregates, Aglime",Shawn Scott,(419) 466-8750,,3798 St Rt 53,Forest,OH  45843,40.762875,-83.53628,#2F5D83,,,Asphalt Plant
Frank Road Office/Facility,Asphalt,Troy Stegner , (614) 437-2359,,395 Frank Road,Columbus,OH ,39.9163817,-82.9999204,#2F5D84,,,Asphalt Plant
Gallipolis Office/Facility,Asphalt,Troy Stegner , (614) 437-2359,,1248 St. Rte. 7,Gallipolis,OH ,38.817031,-82.187821,#2F5D85,,,Asphalt Plant
Genoa Office/Facility,Aggregates,Sam Schmitz ,(419) 392-2091,,677 S. Genoa Clay Center Road,Genoa,OH  43430,41.5023231,-83.3582835,#2F5D86,,,Asphalt Plant
Hillsboro Office/Facility,Asphalt,Troy Stegner , (614) 437-2359,,4301 Roush Road,Hillsboro,OH,39.188885,-83.728697,#2F5D87,,,Asphalt Plant
Kent Office/Facilities,"Aggregates, Asphalt",Hannah Lightener,(216) 618-1945,,1181 Cherry Street,Kent,OH  44240,41.0077989,-81.6301224,#2F5D88,,,Asphalt Plant
Lancaster Office/Facilities,Aggregates        Asphalt,Ed Beach                Troy Stegner,(614) 437-2325            (614) 437-2359,,3232 Logan-Lancaster Rd,Lancaster,OH,39.6928191,-82.581458,#2F5D89,,,Asphalt Plant
Lima Office/Facility,Asphalt,Dale Mathew ,(419) 303-5431,,600 North Sugar Street,Lima,OH  45801,40.7679663,-84.0895407,#2F5D90,,,Asphalt Plant
Lockbourne Sand & Gravel,Aggregates,Jake Bush                Jay Garrison     , (614) 437-2325               (614) 437-2311,,550 Rowe Road,Lockbourne,OH  43137,39.8158353,-82.9871861,#2F5D91,,,Asphalt Plant
Lucasville Office/Facility,Asphalt,Troy Stegner , (614) 437-2359,,851 West Scioto Street,Lucasville,OH  ,38.877581,-83.004266,#2F5D92,,,Asphalt Plant
Marble Cliff Office/Facility,Aggregates        Asphalt,Jake Bush         Shawn Scott, (740) 739-1654   (419) 466-8750   ,,2650 Old Dublin Road,Hilliard,OH  ,40.007963,-83.105879,#2F5D93,,,Asphalt Plant
Marietta Office/Facility,Aggregates            Ready Mix,Phil Parsons                       Nick Hayek, (740) 516-5614           (740) 516-5651,,26650 St. Rte. 7,Marietta,OH  45750,39.380052,-81.400881,#2F5D94,,,Asphalt Plant
Massillon Office/Facility,"Aggregates, Asphalt",Hannah Lightener,(216) 618-1945,,390 Warmington Road SW,Massillon,OH  44646,40.7516507,-81.5172635,#2F5D95,,,Asphalt Plant
Massillon Office/Facility,Ready Mix,Todd Eckert             Carl Edwards, (330) 962-6395                       (330) 321-8084,,1817 Riverside Avenue NW,Massillon,OH  44647,40.8173537,-81.5301731,#2F5D96,,,Asphalt Plant
Maumee Office/Facilities,"Aggregate, Aglime         Asphalt            ReadyMix",Scott Rychener           Sam Schmitz             Sam Brauen ,(419) 466-5387            (419) 392-2091         (419)-341-3584,,1360 Ford Street,Maumee,OH  43537,41.572116,-83.6746863,#2F5D97,,,Asphalt Plant
Maysville Limestone,Aggregates,Todd Achauer,(740)819-3506,,6535 Old Town Road,Mount Perry,OH  43760,39.858763,-82.117273,#2F5D98,,,Asphalt Plant
Medina Office/Facilities,Aggregates          Ready mix,Ted Helton                Hal Lane                  Jack Shear ,(330) 603–6531            (330) 801-9980         (330) 321-8095,,820 West Smith Road,Medina,OH  44256,41.1360749,-81.8852689,#2F5D99,,,Asphalt Plant
North Jackson Office/Facility,Asphalt,Hannah Lightener,(216) 618-1945,,1661 North Bailey Road,North Jackson,OH  44451,41.115734,-80.887233,#2F5D100,,,Asphalt Plant
Noth Ridgeville Office/Facility,Ready Mix, Hal Lane                  Jack Shear ,(330) 801-9980         (330) 321-8095,,7725 Race Road,North Ridgeville,OH  44035,41.373814,-82.044449,#2F5D101,,,Asphalt Plant
Ostrander Office/Facilities,Aggregates         Asphalt,Jake Bush                     Shawn Scott,(740) 739-1654        (419) 466-8750,,8328 Watkins Road,Ostrander,OH  43061,40.2162031,-83.1748628,#2F5D102,,,Asphalt Plant
Peebles Office/Facility,Asphalt,Troy Stegner , (614) 437-2359,,848 Plum Run Road,Peebles,OH  ,38.9501574,-83.3629003,#2F5D103,,,Asphalt Plant
Petersburg Office/Facility,Aggregates,Hannah Lightener,(216) 618-1945,,13484 Youngstown-Pittsburgh Rd,Petersburg,OH  44454,40.9227408,-80.5351779,#2F5D104,,,Asphalt Plant
Piketon Office/Facility,Asphalt,Troy Stegner , (614) 437-2359,,5732 Wakefield Mound Rd,Piketon,OH,39.044889,-83.020417,#2F5D105,,,Asphalt Plant
Portage Asphalt Office/Facility,Asphalt,Scott Rychener, (419) 466-5387,,12570 Greensburg Pike,Portage,OH  43451,41.3114459,-83.6416429,#2F5D106,,,Asphalt Plant
Portage Quarry Office/Facility,"Aggregates, aglime",Sam Schmitz ,(419) 392-2091,,11580 South Dixie Hwy,Portage,OH  43451,41.3182453,-83.6506916,#2F5D107,,,Asphalt Plant
Portland Office/Facility,Aggregates,Phil Parsons,(740) 516-5614,,54301 McDade Road,Portland,OH,39.012986,-81.771475,#2F5D108,,,Asphalt Plant
Reedsville Office/Facility,Aggregates,Phil Parsons,(740) 516-5615,,64584 St. Rte. 124,Reedsville,OH,39.097,-81.75067,#2F5D109,,,Asphalt Plant
Scioto Materials-St Louisville Ofc/Fac,Asphalt,Troy Stegner , (614) 437-2359,,9134 Mt. Vernon Rd.,St Louisville,OH  43071,40.1706421,-82.4204842,#2F5D110,,,Asphalt Plant
Scioto Materials-Westerville Ofc/Fac,Asphalt,Troy Stegner , (614) 437-2359,,6189 Westerville Rd.,Westerville,OH  ,40.095759,-82.92537,#2F5D111,,,Asphalt Plant
Scott Office/Facility,"Aggregates, Aglime",Dale Mathew ,(419) 303-5431,,2364 Richey Road,Convoy,OH,40.969538,-84.648846,#2F5D112,,,Asphalt Plant
Shalersville Office/Facility,Aggregates,Jeremy Mantz ,(330)-405-7677,,3943 Beck Road,Mantua,OH  44255,41.253513,-81.250568,#2F5D113,,,Asphalt Plant
South Bloomfield,Aggregates,Jake Bush                     Shawn Scott,(740) 739-1654        (419) 466-8750,,1839 Weigand Road,Lockbourne,OH  43137,39.7515414,-82.9884885,#2F5D114,,,Asphalt Plant
Springfield Office/Facility,Asphalt,Shawn Scott,(419) 466-8750,,4301 Suth Charleston Pike,Springfield,OH  45502,39.902452,-83.728506,#2F5D115,,,Asphalt Plant
St. Louisville Office/Facility,Aggregates,Jake Bush                     Shawn Scott,(740) 739-1654        (419) 466-8750,,6824 Mt. Vernon Rd.,Newark,OH  ,40.0626929,-82.4069591,#2F5D116,,,Asphalt Plant
Stickney Avenue,Ready Mix,Sam Brauen ,(419)341-3584,,4950 Stickney Avenue,Toledo,OH  43612,41.7071952,-83.5274757,#2F5D117,,,Asphalt Plant
Streetsboro Office/Facilities,"Aggreggates, Asphalt",Hannah Lightener,(216) 618-1945,,8505 St. Rte. 14,Reynoldsburg,OH,39.967349,-82.821912,#2F5D118,,,Asphalt Plant
Tiltonsville Ready Mix Concredt,Ready Mix, Jeff Griffith,(740) 516-4330,,202 Walden Avenue,Tiltonsville,OH  43963,40.1729358,-80.6965289,#2F5D119,,,Asphalt Plant
Twinsburg Office/Facility,Ready Mix,Todd Eckert ,(330) 962-6395,,1516 Highland Road,Twinsburg,OH  44087,41.5650521,-81.5338774,#2F5D120,,,Asphalt Plant
Twinsburg Rail Office/Facility,Aggregates,Hannah Lightener,(216) 618-1945,,8530 Boyle Pkwy,Twinsburg,OH,41.2985897,-81.4618845,#2F5D121,,,Asphalt Plant
West 130 Cleveland Rail Ofc/Fac,Aggregates,Jeremy Mantz,(330)-405-7677,,4431 West 130th Street,Cleveland,OH,41.433524,-81.779855,#2F5D122,,,Asphalt Plant
Willow Island/Reno Ofc/Facility,Aggregates,Phil Parsons ,(740) 516-5614,,30222 St. Rte. 7,Marietta,OH,39.348586,-81.36216,#2F5D123,,,Asphalt Plant
Woodville Asphalt Office/Facility,Asphalt,Scott Rychener ,419) 466-5387,,677 Lime Road,Woodville,OH  43469,41.4610352,-83.36732,#2F5D124,,,Asphalt Plant
York Center Office/Facility,"Aggregates, Aglime",Shawn Scott ,(419) 466-8750,,28855 St. Rte 739,West Mansfield,OH  ,40.414386,-83.452875,#2F5D125,,,Asphalt Plant
Zanesville Office/Facility,Ready Mix,Jeff Griffith ,(740) 516-4330,,1835 West Main Street,Zanesville,OH  43701,39.9456017,-82.0298481,#2F5D126,,,Asphalt Plant
,,,,,,,,39.7837304,-100.445882,#2F5D127,,,Asphalt Plant
Northeast Paving Div. Eurovia Atlantic Coast,Asphalt,,,,17 New Ludlow Road,Granby,MA  01033,42.2239764,-72.5443883,#2F5D128,,,Asphalt Plant
"All States Asphalt, Inc.",,HQ,800-343-9620,info@asmg.com,325 Amherst Road,Sunderland,MA  01375,42.4493015,-72.5606988,#2F5D129,,,Asphalt Plant
"Peckham Industries, Inc",,,,,172 ospect Hill Rd. ,Brewster,NY  10509,41.428277,-73.545264,#2F5D130,,,Asphalt Plant
Northeast Asphalt,,,,,2500 Cold Spring Rd.,Appleton,WI  54914,44.2392129,-88.4855025,#2F5D131,,,Asphalt Plant
Tri-County Asphalt Materials,,,,,405 Andrews Avenue,Youngstown,OH ,41.102643,-80.638938,#2F5D132,,,Asphalt Plant
Allen Myers Locations:,,,,,"PO Box 1340, 1805 Berks Rd",Worcester,PA  19490,40.1808119,-75.333721,#2F5D133,Corporate ,,Asphalt Plant
Aberdeen,"Asphalt, Aggregate",Scott Croney,443-506-9426,scott.croney@allanmyers.com,910 Old Philadelphia Rd,Abedeen,MD  21001,39.488071,-76.191878,#2F5D134,Plant,,Asphalt Plant
Bishop,Asphalt,Michael Gygrynuk,302-218-6815,michael.gygrynuk@allanmyers.com,10031 Kepler Lane,Bishopville,MD  21813,38.4205986,-75.2189187,#2F5D135,,,Asphalt Plant
"Capital, DC",Asphalt,Rafael Gonzalez,571-643-5397,rafael.gonzalez@allanmyers.com,4901 Shepherd Pkwy SW,Washington DC,DC  20032,38.815933,-77.018271,#2F5D136,,,Asphalt Plant
Cedar Hill,Quarry,Sandy Jones           Joe Buckley,443-571-0752           610-222-3178,sandy.jones@allanmyers.com Joe.Buckley@allanmyers.com,219 Quarry Road,Peach Bottom,PA  17563,39.7313554,-76.1386838,#2F5D137,,,Asphalt Plant
Chesapeake,Asphalt,Ricky Thomas   Mke Menkins,757-582-8519            610-560-4923,Ricky.Thomas@allanmyers.com,5300 Bainbridge Blvd,Chesapeake,VA  23320,36.7429853,-76.2931504,#2F5D138,,,Asphalt Plant
Coatesville,Asphalt,Greg Atkinson        Mike Menkins,610-560-7912          610-560-4923,greg.atkinson@allanmyers.com,410 Doe Run Rd.,Coatesville,PA  19320,39.9624788,-75.8402324,#2F5D139,,,Asphalt Plant
Delmar,Asphalt,Michael Gygrnuk   Mike Menkins,302-218-6815        610-560-4923,michael.gygrynuk@allanmyers.com,8788 Patton Road,Delmar,MD  21875,39.5670548,-76.4571631,#2F5D140,,,Asphalt Plant
Devault,Asphalt ,Greg Atkinson        Mike Menkins,610-560-7912          610-560-4923,greg.atkinson@allanmyers.com,"40456 State Rd, Rte 29 and Charlestown Rd",Devault,PA  19432,40.116177,-75.545191,#2F5D141,,,Asphalt Plant
Dover,Asphalt,Michael Gygrnuk   Mike Menkins,302-218-6815        610-560-4923,michael.gygrynuk@allanmyers.com,3700 Bay Road,Dover,DE  19902,38.9883994,-75.445637,#2F5D142,,,Asphalt Plant
Elk Mills,Quarry,Jesse Betts               Joe Buckley,484-250-0378       610-222-3178,Jesse.Betts@allanmyers.com             Joe.Buckley@allanmyers.com,896 Elk Mill Road,Elk Mills,MD  21291,39.339017,-76.72173,#2F5D143,Quarry,,Asphalt Plant
Fredericksburg,Asphalt,Mike Purkey,804370-7770,Mike.Purkey@AllanMyers.com,382 Kings Hwy,Falmouth,VA  22405,38.2861257,-77.4440841,#2F5D144,,,Asphalt Plant
Georgetown,Asphalt,Michael Gygrnuk   Mike Menkins,302-218-6815        610-560-4923,michael.gygrynuk@allanmyers.com,22351 Joseph Lane,Georgetown,DE  19947,38.6695424,-75.1976405,#2F5D145,,,Asphalt Plant
Harleysville,Asphalt,Robert Boland       Greg Atkinson,484-678-9010     610-476-0680,robert.boland@allanmyers.com               greg.atkinson@allanmyers.com,460 Indian Creek Rd.,Harleysville,PA  19438,40.2800795,-75.4048079,#2F5D146,,,Asphalt Plant
Jessup,Asphalt,Scott Croney         Mike Menkins,443-506-9426            610-560-4923,scott.croney@allanmyers.com,8375 Dorsey Run Road,Jessup,MD  20794,39.1420938,-76.7927037,#2F5D147,,,Asphalt Plant
Leesburg,Asphalt,Rafael Gonzalez         Michael D. Menkins,571-643-5397         610-960-3151,Rafael.gonzalez@allanmyers.com,42050 Cochran Mill Road,Leesburg,VA  20175,39.0750965,-77.5260508,#2F5D148,,,Asphalt Plant
New Kent,Asphalt,Glenn Muse        Mike Menkins,804-432-6662             610-560-4923,glenn.muse@allanmyers.com,7701 Parham Landing Rd,West Point,VA  23181,37.5121901,-76.8579092,#2F5D149,,,Asphalt Plant
North East,Asphalt,Brian Hart             Mike Menkins,410-746-6512            610-560-4923,brian.hart@allanmyers.com,284 Quarry Road,Elkton,MD  21921,39.638264,-75.933498,#2F5D150,,,Asphalt Plant
Paradise,Asphalt & Quarry,Greg Atkinson    Mike Menkins,610-476-0680            610-560-4973,greg.atkinson@allanmyers.com,47 Mcllvain Road,Paradise,PA  17562,39.996298,-76.09022,#2F5D151,Quarry,,Asphalt Plant
Petersburg,Asphalt,Glenn Muse        Mike Menkins,804-432-6662             610-560-4923,glenn.muse@allanmyers.com,2070 Bessemer Road,Petersburg,VA  23805,37.1794845,-77.4190988,#2F5D152,,,Asphalt Plant
Powhatan,Asphalt,Mike Purkey         Mike Menkins,804-370-7770       610-560-4923,Mike.Purkey@AllanMyers.com,1920 Anderson Hwy,Powhatan,VA  23139,37.5173322,-77.7720834,#2F5D153,,,Asphalt Plant
Reading,Asphalt,Robert Boland       Greg Atkinson,484-678-9010     610-476-0680,robert.boland@allanmyers.com               greg.atkinson@allanmyers.com,5662 Leesport Avenue,Reading,PA  19612,40.4209094,-75.9290616,#2F5D154,,,Asphalt Plant
Rockville,Asphalt,Mike Purkey         Mike Menkins,804-370-7770       610-560-4923,Mike.Purkey@AllanMyers.com,2115 Ashland Road,Rockville,VA  23146,37.6988836,-77.6558178,#2F5D155,,,Asphalt Plant
Wakefield,Asphalt,Glenn Muse,804-432-6662,Glenn.Muse@AllanMyers.com,33080 General Mahone Blvd,Wakefield,VA  23888,36.9380064,-76.9407897,#2F5D156,,,Asphalt Plant
Wilmington,Asphalt,Brian Hart             Mike Menkins,410-746-6512       610-560-4923,brian.hart@allanmyers.com,1230 Railcar Ave.,Wilmington,DE  19802,39.741988,-75.532928,#2F5D157,,,Asphalt Plant
"Commercial Asphalt Supply, Inc.",Asphalt,,,,161 Plain Grove Road,Slippery Rock,PA  16057,41.0361128,-80.1441242,#2F5D158,Plant,,Asphalt Plant
Shields Asphalt Paving,Asphalt,,,,161 Plain Grove Road,Slippery Rock,PA  16057,41.0361128,-80.1441242,#2F5D159,Plant,,Asphalt Plant
D & R Supply,Asphalt,,,,18228 Fulton Road,Marshallville,OH  44645,40.8976658,-81.663354,#2F5D160,Plant,,Asphalt Plant
Rupp Construction,Sand and gravel,,,,18228 Fulton Road,Marshallville,OH  44645,40.8976658,-81.663354,#2F5D161,Plant,,Asphalt Plant
HEI WAY,Asphalt,,,info@hei-way.com,290 North Pike Road ,Sarver, PA 16055,40.7485109,-79.7783043,#2F5D162,Plant,,Asphalt Plant
Cranberry Supply,Asphalt,,,,8020 Rowan Road,Cranberry Twp,PA  16066,40.703995,-80.099785,#2F5D163,Distributor,,Asphalt Plant
"Building Products, Inc.",Asphalt,,,sales@buildingprods.com,136 23rd Street,Sharpsburg,PA 15215,40.494657,-79.913984,#2F5D164,Distributor,,Asphalt Plant
Georges Supply,Asphalt,,,,3101 Brownsville Road,South Park Twp,PA  15129,40.284383,-79.999204,#2F5D165,Distributor,,Asphalt Plant
Kiefer Coal & Supply Co,Asphalt,,,,5088 W. Library Ave.,Bethel Park,PA 15102,40.333839,-80.031257,#2F5D166,Distributor,,Asphalt Plant
Russell Brothers Building Supply,Asphalt,,,,101 West Wylie Avenue,Washington,PA  15301,40.1817945,-80.2660626,#2F5D167,Distributor,,Asphalt Plant
Rt 40 Aggregates & Feed,Asphalt,,,rt40supply@gmail.com,800 National Pike West,Brownsille,PA  15417,40.04285,-79.96517,#2F5D168,Distributor,,Asphalt Plant
Snyder Excavating,Asphalt,,,,2824 William Penn Avenue,Johnstown,PA  15909,40.414151,-78.8605839,#2F5D169,Distributor,,Asphalt Plant
James W Gilliland Hauling,Asphalt,,,,77 Auction Road,New Wilmington,PA  16142,41.1317276,-80.329917,#2F5D170,Distributor,,Asphalt Plant
Berkey Excavating,Asphalt,Dave and Kevin Berkey,,wemovetheearth@aol.com,524 Berkey Road,Boxwell,PA  15531,40.1929501,-79.0455735,#2F5D171,Distributor,,Asphalt Plant
McDonald Sand and Gravel,Asphalt,,,,12559 Sanford Road,West Springfield,PA  16443,41.9569157,-80.4274534,#2F5D172,Distributor,,Asphalt Plant
"William Dickson Industries, Inc.",Asphalt,,,contact@williamdicksonindustries.com,133 Locust Road,St. Mary's,PA  15857,41.423174,-78.5536253,#2F5D173,Distributor,,Asphalt Plant
"William Dickson Industries, Inc.",Asphalt,,,,113 Lee Valley Road,Derry,PA  15627,40.36257,-79.385229,#2F5D174,Distributor,,Asphalt Plant
A. Marinelli & Sons,Asphalt,,,hello@marinelliandsons.com,Township Line Road,Darby,PA  19082,39.9747413,-75.2815412,#2F5D175,Distributor,,Asphalt Plant
Allied Landscape Supply,Asphalt,,,,1752 Limekiln Pike,Dresher,PA  19025,40.1405062,-75.1661444,#2F5D176,Distributor,,Asphalt Plant
Allied Landscape Supply,Asphalt,,,,200 Limerick Center Rd.,Limerick,PA 19468,40.2270033,-75.5485317,#2F5D177,,,Asphalt Plant
Allied Landscape Supply,Asphalt,,,,1425 E . Schuylkill Rd. Rt 724,Pottstown,PA 19465,40.22774,-75.624262,#2F5D178,,,Asphalt Plant
Allied Landscape Supply,Asphalt,,,,31 E 1st Ave.,Parkesburg,PA 19365,39.9603811,-75.9120653,#2F5D179,,,Asphalt Plant
D & S Hauling-Stone Supply Yard,Asphalt,,,,"191 Rte. 739, Dingmans Ferry", Dingmans Ferry,PA  18328,41.28664,-74.94041,#2F5D180,Distributor,,Asphalt Plant
JNA Materials,Asphalt,,,,7147 Camphill Road,Whitemarsh,PA  19034,40.1415878,-75.1807734,#2F5D181,Distributor,,Asphalt Plant
M&W Precast & Construction,Asphalt,,,,210 Durham Road,Ottsville,PA  18942,40.4693437,-75.1578401,#2F5D182,Distributor,,Asphalt Plant
"Petke Construction Co., Inc",Asphalt,,,petkes@petkeconstruction.com,2031 Jennie Scher Road,Richmond,VA  23232,37.5266008,-77.3932344,#2F5D183,Distributor,,Asphalt Plant
Martin Marietta,Asphalt,,,,2725 Capital Dr.,Colorado Springs,CO 80915,38.8711387,-104.6756418,#2F5D184,Plant,,Asphalt Plant
Martin Marietta,Asphalt,,,,925 North 35th Avenue,Greeley,CO 80631,40.4342415,-104.7350261,#2F5D185,Plant,,Asphalt Plant
S&K Asphalt Concrete,Asphalt,,,info@skasphaltconcrete.com,,Akron,Ohio,41.083064,-81.518485,#2F5D186,,,Asphalt Plant
Asphalt Materials Inc.,,,,,,,,39.7837304,-100.445882,#2F5D187,,,Asphalt Plant
Columbus,Asphalt,Rich Cross,614-274-6767,rcross@asphalt-materials.com,3737 Fisher Rd.,Columbus,Ohio,39.967385,-83.1008132,#2F5D188,Plant,,Asphalt Plant
Edison,Asphalt,David Neal,,Dneal@asphalt-materials.com,219 1/2 West High Street P.O. Box 247,Edison,Ohio,40.5575994,-82.8676582,#2F5D189,Plant,,Asphalt Plant
Oregon,Asphalt,Douglas Kuiper,,dkuiper@asphalt-materials.com,940 N. Wynn Rd.,Oregon,Ohio,41.6696978,-83.4293397,#2F5D190,Plant,,Asphalt Plant
Marietta,Asphalt,Brian Lawrence,,bryan.lawrence@asphalt-materials .com,13925 State Road 7,Marietta,Ohio,39.392139,-81.404578,#2F5D191,Plant,,Asphalt Plant
HQ,Main Office,,,marketing@asphalt-materials.com,8720 Robbins Rd.,Indianapolis,Indiana,39.9126531,-86.2547057,#2F5D192,,,Asphalt Plant
Indianapolis,Asphalt,Scott Hippert,317-550-9122,shippert@asphalt-materials.com,4902 W. 86th St.,Indianapolis,Indiana,39.9114669,-86.2419147,#2F5D193,Plant,,Asphalt Plant
Warsaw,Asphalt,Larry Chevalier,,lchevalier@asphalt-materials.com,2820 E. Durbin St. ,Warsaw,Indiana,41.234109,-85.821409,#2F5D194,Plant,,Asphalt Plant
Laketon Refining Corp.,Asphalt,Ike Denton,260-568-1000,ike.denton@asphalt-materials.com,2784 Lukens Lake Rd.,Laketon,Indiana,40.971298,-85.842445,#2F5D195,Plant,,Asphalt Plant
Emulsicoat Mt. Vernon,,Jeremy Dilley,217-240-0216,jdilley@asphalt-materials.com,1200 Old Hwy 69 S.,Mount Vernon,Indiana,37.921695,-87.944586,#2F5D196,Plant,,Asphalt Plant
Kokosing Materials,,,,,,,,39.7837304,-100.445882,#2F5D197,,,Asphalt Plant
Woodville Plant,Asphalt,,419-849-2456,kmisalesteam@kokosing.biz,875 East main St.,Woodville,Ohio,41.4466292,-83.3539339,#2F5D198,Plant,,Asphalt Plant
Sheffield Plant ,Asphalt,,440-277-9740,kmisalesteam@kokosing.biz,4140 East River Rd.,Sheffield,Ohio,41.4410893,-82.098136,#2F5D199,Plant,,Asphalt Plant
Columbia Station Plant,Asphalt,,440-236-3869,kmisalesteam@kokosing.biz,13315 Hawke Rd.,Columbia Station,Ohio,41.31311,-81.94681,#2F5D200,Plant,,Asphalt Plant
Cleveland Plant,Asphalt,,216-441-8892,kmisalesteam@kokosing.biz,3000 Independence Rd.,Cleveland,Ohio,41.4773303,-81.6677042,#2F5D201,Plant,,Asphalt Plant
Garfield Heights Plant,Asphalt,,216-587-4900,kmisalesteam@kokosing.biz,13700 McCracken Rd.,Cleveland,Ohio,41.4251317,-81.5717076,#2F5D202,Plant,,Asphalt Plant
East Claridon Plant,Asphalt,,440-635-5063,kmisalesteam@kokosing.biz,14948 Mayfield Rd.,East Claridon,Ohio,41.5336352,-81.1082765,#2F5D203,Plant,,Asphalt Plant
Grand River Plant,Asphalt,,419-849-9999,kmisalesteam@kokosing.biz,15 Williams St.,Grand River,Ohio,41.745795,-81.2854568,#2F5D204,Plant,,Asphalt Plant
Ashtabula Plant,Asphalt,,,kmisalesteam@kokosing.biz,1601 E. 21st St.,Ashtabula,Ohio,41.8893239,-80.7777463,#2F5D205,Plant,,Asphalt Plant
Medina Plant,Asphalt,,330-721-2775,kmisalesteam@kokosing.biz,310 North State Rd.,Medina,Ohio,41.1435517,-81.8782617,#2F5D206,Plant,,Asphalt Plant
Shalersville Plant,Asphalt,,330-274-2282,kmisalesteam@kokosing.biz,3486 Frost Rd.,Mantua,Ohio,41.2629127,-81.2637611,#2F5D207,Plant,,Asphalt Plant
Tallmadge Plant,Asphalt,,330-968-3800,kmisalesteam@kokosing.biz,741 Tallmadge Rd.,Kent,Ohio,41.1000396,-81.3518109,#2F5D208,Plant,,Asphalt Plant
Wooster Plant,Asphalt,,330-263-4168,kmisalesteam@kokosing.biz,1516 Timken Rd.,Wooster,Ohio,40.7800475,-81.9390884,#2F5D209,Plant,,Asphalt Plant
Upper Sandusky Plant,Asphalt,,419-209-0693,kmisalesteam@kokosing.biz,6326 County Highway 61,Upper Sandusky,Ohio,40.782033,-83.235399,#2F5D210,Plant,,Asphalt Plant
Mansfield Plant,Asphalt,,419-526-2852,kmisalesteam@kokosing.biz,46 E. Longview Ave.,Mansfield,Ohio,40.776982,-82.512979,#2F5D211,Plant,,Asphalt Plant
Fredericktown Plant,Asphalt,,740-694-5872,kmisalesteam@kokosing.biz,11624 Hyatt Rd.,Fredericktown,Ohio,40.457638,-82.533697,#2F5D212,Plant,,Asphalt Plant
Marengo Plant,Asphalt,,,kmisalesteam@kokosing.biz,4178 Township Rd. 256,Marengo,Ohio,40.301619,-83.918673,#2F5D213,Plant,,Asphalt Plant
St. Louisville Plant,Asphalt,,740-745-3341,kmisalesteam@kokosing.biz,9134 Mount Vernon Rd.,St. Louisville,Ohio,40.1706421,-82.4204842,#2F5D214,Plant,,Asphalt Plant
Westerville Plant,Asphalt,,614-891-5090,kmisalesteam@kokosing.biz,6187 Westerville Rd.,Westerville,Ohio,40.1432236,-82.9397235,#2F5D215,Plant,,Asphalt Plant
Columbus Plant,Asphalt,,614-491-1199,kmisalesteam@kokosing.biz,4755 South High St.,Columbus,Ohio,39.86257,-83.004383,#2F5D216,Plant,,Asphalt Plant
Osborne Companies,Asphalt,,440-352-2254,,6 Coast Guard Rd.,Painesville,Ohio,41.7567954,-81.2834572,#2F5D217,,,Asphalt Plant
National Lime and Stone Co,,,,,,,,39.7837304,-100.445882,#2F5D218,,,Asphalt Plant
Cambridge Plant,Ashpalt,Jody Barwick,330-415-6456,jbarwick@natlime.com,61145 Shaw Rd.,Cambridge,Ohio,39.990845,-81.677688,#2F5D219,Plant,,Asphalt Plant
Cadiz Plant,Ashpalt,Chris Dusenberry,330-600-1494,cdusenberry@natlime.com,80870 Unionvale Kenwood rd.,Cadiz,Ohio,40.3184963,-80.9815608,#2F5D220,Plant,,Asphalt Plant
Martins Ferry Plant,Ashpalt,Jody Barwick,330-415-6456,jbarwick@natlime.com,1601 N 1st St.,Martins Ferry,Ohio,40.1016071,-80.7119669,#2F5D221,Plant,,Asphalt Plant
Empire Plant,Ashpalt,Chris Dusenberry,330-600-1494,cdusenberry@natlime.com,1422 Co Hwy 7F,Toronto,Ohio,40.472989,-80.603202,#2F5D222,Plant,,Asphalt Plant
Jurgensen Companies,,,,,,,,39.7837304,-100.445882,#2F5D223,,,Asphalt Plant
HQ,Main Office,,,,11641 Mosteller Rd.,Cincinnati,Ohio,39.285894,-84.429337,#2F5D224,,,Asphalt Plant
Walls Asphalt Manufacturing,Asphalt,,,,3495 Hollanburg-Sampson Rd.,Greenville,Ohio,39.98954,-84.61374,#2F5D225,Plant,,Asphalt Plant
Valley Asphalt Corp.,Asphalt,,,,250 Dye Mill Rd.,Troy ,Ohio,40.0187093,-84.1955383,#2F5D226,Plant,,Asphalt Plant
Walls Asphalt Manufacturing,Asphalt,,,,9843 Dayton-Greenville Pike,Brookville,Ohio,39.88742,-84.387661,#2F5D227,Plant,,Asphalt Plant
Valley Asphalt Corp.,Asphalt,,,,1901 Dryden Rd.,Dayton,Ohio,39.7323793,-84.2156422,#2F5D228,Plant,,Asphalt Plant
Valley Asphalt Corp.,Asphalt,,,,1337 Dayton Xenia Rd.,Xenia,Ohio,39.6989706,-83.9660268,#2F5D229,Plant,,Asphalt Plant
Valley Asphalt Corp.,Asphalt,,,,1903 Old US Rt 35 SE,Washington CH,Ohio,40.89284,-80.760675,#2F5D230,Plant,,Asphalt Plant
Valley Asphalt Corp.,Asphalt,,,,228 Melvin Rd.,Wilmington,Ohio,39.472735,-83.716104,#2F5D231,Plant,,Asphalt Plant
Valley Asphalt Corp.,Asphalt,,,,309 Industrial Dr.,Franklin,Ohio,39.5353457,-84.2986076,#2F5D232,Plant,,Asphalt Plant
Valley Asphalt Corp.,Asphalt,,,,581 N. Garver Rd.,Monroe,Ohio,39.440156,-84.338271,#2F5D233,Plant,,Asphalt Plant
Valley Asphalt Corp.,Asphalt,,,,4850 Stubbs Mill Rd.,Morrow ,Ohio,39.364537,-84.172632,#2F5D234,Plant,,Asphalt Plant
Valley Asphalt Corp.,Asphalt,,,,3910 Kraus Lane ,Ross,Ohio,39.3197656,-84.6355391,#2F5D235,Plant,,Asphalt Plant
Hot Mix Inc.,Asphalt,,,,992 S. County Rd. 800 East,Greenburg,Indiana,38.120539,-87.291394,#2F5D236,,,Asphalt Plant
Valley Asphalt Corp.,Asphalt,,,,5073 Kilby rd.,Cleves,Ohio,39.190066,-84.778878,#2F5D237,Plant,,Asphalt Plant
Valley Asphalt Corp.,Asphalt,,,,7940 Main St.,Newtown ,Ohio,39.1241259,-84.3318967,#2F5D238,Plant,,Asphalt Plant
Valley Asphalt Corp.,Asphalt,,,,612 W. Mehring Way,Cincinnati,Ohio,39.0944515,-84.520623,#2F5D239,Plant,,Asphalt Plant
Eaton Asphalt Paving,Asphalt,,,,1075 Eaton Dr.,Covington,Kentucky,39.029915,-84.532914,#2F5D240,Plant,,Asphalt Plant
Valley Asphalt Corp.,Asphalt,,,,14722 Bodman Rd.,Mt. Orab,Ohio,39.042949,-83.9663,#2F5D241,Plant,,Asphalt Plant
RW Sidley,,,330-793-7374,,,Youngstown,OH,41.1035786,-80.6520161,#9B5A2E,,,Stone Yard
Painesville,,,440-352-9343,,436 Casement Ave.,Painesville,OH,41.7380009,-81.2280428,#9B5A2E,,,Stone Yard
Thompson,,,440-298-3232,,7123 Madison Rd.,Thompson,OH,41.6732325,-81.0446989,#9B5A2E,,,Stone Yard
Madison,,,440-428-4500,,4493 Madison Rd.,Madison,OH,41.7504773,-81.0469354,#9B5A2E,,,Stone Yard
Youngwood (Precast Plant),,,724-755-0205,,88 East Hillis St.,Youngwood,PA,40.2314855,-79.5757639,#9B5A2E,Plant,,Stone Yard
Girard,,,330-545-1964,,200 Mill St.,Girard,OH,41.149594,-80.707371,#9B5A2E,,,Stone Yard
Struthers,,,330-750-1661,,395 Lowellville Rd.,Struthers,OH,41.0425811,-80.554469,#9B5A2E,,,Stone Yard
Barnesville (Whitco Supply),,,740-619-0021,,37100 Jeru West Dr.,Barnesville,OH,38.842034,-82.245818,#9B5A2E,,,Stone Yard
Williamsport (Whitco Supply),,,570-601-4645,,2906 Reach  Rd.,Williamsport,PA,41.2263802,-77.0707106,#9B5A2E,,,Stone Yard
Towanda,,,570-265-8543,,330 Wickwire Way,Towanda,PA,41.762834,-76.4308987,#9B5A2E,,,Stone Yard
Washington,,,724-225-8805,,5 Grable Rd.,Washington,PA,40.031441,-80.1111374,#9B5A2E,,,Stone Yard
URVI Enterprise LLC,,,,nayan.urvienterprise@gmail.com,521 W Main St.,Millville ,NJ,39.396727,-75.051586,#9B5A2E,,,Stone Yard
"GCP Applied Technologies, Inc.",,HQ,1-877-423-6491,Customersolutions.na@gcpat.com,2325 Lakeview Parkway Suite 475,Alpharetta,GA,34.0576646,-84.2917107,#9B5A2E,,,Stone Yard
Plasti-Chemie North America LLC,,Volkmar Lull,305-336-7635,volkmar.lull@plasti-chemie-america.com,400 5th Ave. S Suite 301,Naples,FL,26.1409531,-81.8016172,#9B5A2E,,,Stone Yard
"W&P, LLC",,Thad Pearson (Sales),601-913-9796,tpearson@wandpllc.com,"6242 US Hwy 98, Ste 60",Hattiesburg,MS,31.319492,-89.394177,#9B5A2E,,,Stone Yard
Duraamen Engineered Products,,,1-212-386-7609,victo@duraamen.com,116 W 23rd St.,New York,NY,40.7520732,-73.3477444,#9B5A2E,,,Stone Yard
Pillar Aggregates LLC,,,303-536-7429,sales@pillaraggregates.com,10701 E 120th Ave,Henderson,CO,39.9144148,-104.8578913,#9B5A2E,,,Stone Yard
American Natural Stone & Supply,,,,info@americannaturalstone.com,1004 Medina Road,Medina,OH,41.1360325,-81.7238966,#9B5A2E,,,Stone Yard
Kelly Supply Co.,,,,,"11622 OH-44, ",Mantua,OH  44255,41.286694,-81.229132,#9B5A2E,,,Stone Yard
Stone Centers Of Ohio,,,,info@stonecenters.com,1736 McKinley ,Columbus,OH  43222,39.9642046,-83.0481508,#9B5A2E,,,Stone Yard
Stone Centers Of Ohio,,,,info@stonecenters.com,4820 Stafford St.,Cincinnati,OH  45227,39.1580859,-84.3852569,#9B5A2E,,,Stone Yard
Rock Solid Cut Stone & Supply,,,,,12989 Market Avenue N. Unit A,Hartville,OH  44632,40.9438609,-81.3602866,#9B5A2E,,,Stone Yard
Northeast Ohio Stone,,,330-506-2876,,5690 W Liberty St,Hubbard,OH,41.1582254,-80.6073977,#9B5A2E,,,Stone Yard
Masonry Materials Plus,,,330-744-7587,,Willow Street ,Youngstown,OH,41.1107097,-80.6338973,#9B5A2E,,,Stone Yard
ACME,Stone,,330-758-2313,sales@theacmecompany.com,9495 E. Harvard Blvd. ,Youngstown,OH,40.981465,-80.650707,#9B5A2E,,,Stone Yard
4PL Solutions,,,330-349-8832,sales@4plsolutions.com,1330 Seaborn St. Suite 5,Mineral Ridge,OH,41.1454847,-80.7710736,#5A3F6D,,,Quicklime
Missippi Lime,,, (800) 437-5463,sales@mlc.com,"3870 S. Lindbergh Blvd., Ste 200",St. Louis,MO,38.547898,-90.4034926,#5A3F6D,Head Quarters,,Quicklime
Missippi Lime,Specialty Products,Dan Menniti,(412)  979-8030,dtmenniti@mlc.com,16147 Highway 61,Ste. Genevieve,MO,37.979336,-90.076666,#5A3F6D,Production,,Quicklime
Missippi Lime,,,,,200 Sierra Drive,Verona,KY,38.778787,-84.696456,#5A3F6D,Production,,Quicklime
Missippi Lime,,,,,8035 Highway 25,Calera,AL,33.09363,-86.796333,#5A3F6D,Production,,Quicklime
Missippi Lime,,,,,1543 Haining Road,"Vicksburg, ",MS,32.3916788,-90.8892064,#5A3F6D,Production,,Quicklime
Missippi Lime,,,,,"3001 Birch Drive
","Weirton, ",WV,40.387193,-80.618053,#5A3F6D,Production,,Quicklime
Missippi Lime,,,,,1551 Cochran Causeway,"Mobile, ",AL,30.761124,-88.148193,#5A3F6D,Production,,Quicklime
Missippi Lime,,,,,"1544 Beltline Road                        
","Chester, ",SC,34.7097104,-81.1343334,#5A3F6D,Production,,Quicklime
Missippi Lime,,,,,7849 Bluff Road,"Prairie du Rocher, ",IL,38.0968234,-90.1080628,#5A3F6D,Production,,Quicklime
Missippi Lime,,,,,6600 Old Bonne Terre Road,"Bonne Terre, ",MO,37.888863,-90.532919,#5A3F6D,Production,,Quicklime
Missippi Lime,,,,,"Melton Ross Quarries, Barnetby","North Lincolnshire, ",DN,53.5748,-0.40607,#5A3F6D,Production,,Quicklime
Missippi Lime,,,,,12797 Scenic Highway,"Baton Rouge, ",LA,30.5595668,-91.2023051,#5A3F6D,Distribution,,Quicklime
Missippi Lime,,,,,2351 State Street,"Chicago Heights,",IL,41.4931652,-87.6160373,#5A3F6D,Distribution,,Quicklime
Missippi Lime,,,,,89 S 18th Street,"East St. Louis, ",IL,38.6106432,-90.146569,#5A3F6D,Distribution,,Quicklime
Missippi Lime,,,,,8440 Gibbs Road,Kansas City,KS,39.0611079,-94.7761898,#5A3F6D,Distribution,,Quicklime
Missippi Lime,,,,,4620 Monaco Avenue,"Denver, ",CO,39.6408544,-104.9107219,#5A3F6D,Distribution,,Quicklime
"The Kish Company, Inc.",Quicklime,,440-205-9970,info@kishcompany.com,"8020 Tyler Blvd, #100",Mentor,OH,41.6823942,-81.3542548,#5A3F6D,,,Quicklime
Lhoist North America,,,,,,,TX,31.2638905,-98.5456116,#5A3F6D,,,Quicklime
Greer Lime Company,Quicklime,John Bossio (Ex. VP),304-296-1751,jbossio@greerlime.com,PO Box 1900,Morgantown,WV,39.6296809,-79.9559437,#5A3F6D,,,Quicklime
Greer Lime Company,Quicklime,David Harper,304-567-2141,dharper@greerlime.com,1088 Germany Valley Limestone Rd.,Riverton,WV,38.740639,-79.431344,#5A3F6D,,,Quicklime
"Continental Lime, Inc (Graymont)",,,,,,,,39.7837304,-100.445882,#5A3F6D,,,Quicklime
Genoa,Lime,,604-207-4292,,21880 West State Route 163 P.O. Box 158,Genoa,OH,41.515476,-83.35299,#5A3F6D,,,Quicklime
Pleasant Gap,Lime,,1-888-472-9086,,375 Graymont Rd.,Bellefonte ,PA,40.8916358,-77.7086476,#5A3F6D,,,Quicklime
Corporate Office,,,1-604-207-4292,,#200-10991 Shellbridge Way,Richmond BC,Canada,49.17003,-123.13683,#5A3F6D,,,Quicklime
Mintek Resources,Quicklime,,937-519-3404,,"3725 Pentagon Blvd, Ste 100",Beavercreek,OH,39.7711234,-84.0691356,#5A3F6D,,,Quicklime
Carmeuse,Quicklime,,,salesinquiries@carmeuse.com,11 Stanwix St. ,Pittsburgh,Pa,40.4390288,-80.0062963,#5A3F6D,,,Quicklime
Buffington Plant,Quicklime,,,,1 North Carmeuse Ln.,Gary,IN,39.981947,-87.12844,#5A3F6D,,,Quicklime
Maysville Plant,Quicklime,,,,9222 Springdale Rd.,Maysville,KY,38.597822,-83.654845,#5A3F6D,,,Quicklime
Grand River Plant,Quicklime,,412-995-5500,,15 Williams St.,Grand River,OH,41.745795,-81.2854568,#5A3F6D,,,Quicklime
Winchester Plant,Quicklime,,,,508 Quarry Lane,Clearbrook,VA,37.217366,-79.926299,#5A3F6D,,,Quicklime
Maple Grove,Quicklime,,412-995-5500,,1967 W County Rd. 42,Bettsville,OH,40.065128,-80.780045,#5A3F6D,,,Quicklime
Asphalt Busters,Quicklime,,623-936-8800,info@asphaltbusters.com,801 South 71st Avenue,Phoenix,AR,33.278154,-91.769025,#5A3F6D,Head Quarters,,Quicklime
National Lime Equipment,Quicklime,Patrick Shields,480-841-9137,patrick@nationallimeequipment.com,P.O. Box 36496 ,Phoenix,AR,35.3945951,-92.9931351,#5A3F6D,,,Quicklime
National Lime Equipment,Quicklime,Brett Tanner,480-267-5208,brett@nationallimeequipment.com,P.O. Box 36497,Phoenix,AR,35.3945951,-92.9931351,#5A3F6D,,,Quicklime
MLC ,Quicklime,,,,200 Sierra Dr.,Verona,KY,38.778787,-84.696456,#5A3F6D,,,Quicklime
MLC ,Quicklime,,,,12797 Scenic Highway,Baton Rouge,LA,30.5595668,-91.2023051,#5A3F6D,Terminal,,Quicklime
MLC ,Quicklime,,,,3001 Birch Dr.,Weirton,WV,40.387193,-80.618053,#5A3F6D,,,Quicklime
MLC ,Quicklime,,,,1024 Commerce Dr.,Grafton,OH,41.2853546,-82.0677797,#5A3F6D,,,Quicklime
MLC ,Quicklime,,,,1544 Beltline Rd.,Chester,SC,34.7097104,-81.1343334,#5A3F6D,,,Quicklime
MLC ,Quicklime,,,,2351 State St.,Chicago Heights,IL,41.4931652,-87.6160373,#5A3F6D,Terminal,,Quicklime
MLC ,Quicklime,,,,89 S 18th St. ,East St. Louis,IL,38.6106432,-90.146569,#5A3F6D,Terminal,,Quicklime
Martin Marietta,,,,,,,,39.7837304,-100.445882,#5A3F6D,,,Quicklime
Woodville,Lime,,919-781-4550,,755 Lime Rd.,Woodville,OH,41.470056,-83.367646,#5A3F6D,,,Quicklime
Rhi Magnesita,Lime,,905-633-4581,,320 N Baker Rd.,York,PA,39.934781,-76.809141,#5A3F6D,,,Quicklime
Reed Oil/21st Century Energy Group,,Loren,724-333-6344,,,,,39.7837304,-100.445882,#6B7280,,,Fuel Sales
Sunoco Shenango,FUEL,,,,2985 New Butler Road,New Castle,PA  16101,40.9760431,-80.2827366,#6B7281,,,Fuel Sales
BP-New Wilmington,FUEL,,,,Rt 208 & 18 ,New Wilmington,PA  16142,41.115625,-80.360021,#6B7282,,,Fuel Sales
BP-New Castle,FUEL,,,,1010 Wilmington Rd,New Castle,PA  16105,41.0116288,-80.3497204,#6B7283,,,Fuel Sales
Citgo-Portersville,FUEL,,,,1651 Perry Hwy Rt 19,Portersville,PA  16051,40.949964,-80.153903,#6B7284,,,Fuel Sales
Citgo-Laurel,FUEL,,,,2335 Harlansburg Road,New Castle,PA  16105,41.013419,-80.2697249,#6B7285,,,Fuel Sales
Citgo-New Castle,FUEL,,,,1010 Wilmington Rd,New Castle,PA  16105,41.0116288,-80.3497204,#6B7286,,,Fuel Sales
Transfer,FUEL,,,,285 Reynolds Ind. Park Rd.,Transfer,PA  16115,41.3525748,-80.4057911,#6B7288,,,Fuel Sales
Grove City,FUEL,,,,408 Erie Street,Grove City,PA  16127,41.1622898,-80.0899393,#6B7289,,,Fuel Sales
Mercer,FUEL,,,,857 Perry Hwy,Mercer,PA  16137,41.1955861,-80.2408297,#6B7290,,,Fuel Sales
New Castle,FUEL,,,,411 Neal Street,New Castle,PA  16101,40.9961559,-80.342715,#6B7291,,,Fuel Sales
Darlington,FUEL,,,,4433 Constitution Blvd,Darlington,PA  16115,40.8492414,-80.5180227,#6B7292,,,Fuel Sales
RD HOLDER Oil Company,,,800-243-0432,,600 N. Dayton-Lakeview Rd,New Carlisle,OH  45344,39.9238079,-84.030828,#6B7293,,,Fuel Sales
BelleFontaine,FUEL,,800-243-0432,,706 W. Sandusky Avenue,Bellefontaine,OH  43311,40.3633811,-83.7706542,#6B7294,,,Fuel Sales
Lancaster,FUEL,,800-243-0432,,238 N. Pierce Avenue,Lancaster,OH  43130,39.7160241,-82.6188528,#6B7295,,,Fuel Sales
Lima,FUEL,,800-243-0432,,1078 S. Metcalf Street,Lima,OH  45804,40.7245596,-84.1133865,#6B7296,,,Fuel Sales
Springfield,FUEL,,800-243-0432,,1135 Warder Street,Springfield,OH  45503,39.9257791,-83.7913258,#6B7297,,,Fuel Sales
Washington Court House,FUEL,,800-243-0432,,304 W. Market St.,Washington Ct House,OH  43160,39.5354515,-83.4426771,#6B7298,,,Fuel Sales
Heath,FUEL,,800-243-0432,,1000 Keller Drive,Heath,OH  43056,40.0347688,-82.4738745,#6B7299,,,Fuel Sales
Laura,FUEL,,800-243-0432,,11611 St. Rte. 571,Laura,OH  45337,40.006341,-84.420413,#6B7300,,,Fuel Sales
Columbus,FUEL,,800-243-0432,,2057 Dublin Road,Columbus,OH  43228,39.9969261,-83.0877677,#6B7301,,,Fuel Sales
Dayton,FUEL,,800-243-0432,,2931 Boulder Ave,Dayton,OH  45414,39.8100033,-84.1782448,#6B7302,,,Fuel Sales
Columbia,FUEL,Main Office,800-982-0363,columbia@lewistransportinc.com,506 Burkeville Street,Columbia,KY  42728,37.142288,-85.206904,#6B7304,,,Fuel Sales
"  Northern KY/Cinci, OH/Knoxvl TN",FUEL,,859-485-2111,walton@lewistransportinc.com,13024 Dixie Highway,Walton,KY  41094,38.8559508,-84.6026657,#6B7305,,,Fuel Sales
Louisville,FUEL,,800-752-6035,louisville@lewistransportinc.com,4205 Campground Road,Louisville,KY  40216,38.0748568,-85.7608422,#6B7306,,,Fuel Sales
Indianapolis,FUEL,,317-535-3525,,,Indianapolis,IN  ,39.7683331,-86.1583502,#6B7307,,,Fuel Sales
Santmyer,Main Office,,800-686-4589,,3000 Old Airport Rd,Wooster,OH  44691,40.8369167,-81.9089195,#6B7308,,,Fuel Sales
Ashland Bulk Plant,FUEL,,419-289-8815,,1011 Jacobson Avenue,Ashland,OH  ,40.8761096,-82.3074798,#6B7309,,,Fuel Sales
Dalton Bulk Plant,FUEL,,330-828-2771,,39 N. Cochran St.,Dalton,OH,40.7986631,-81.6879293,#6B7310,,,Fuel Sales
Mount Vernon Bulk Plant,FUEL,,740-393-2096,,9090 Columbus Road,Mt. Vernon,OH,40.3794632,-82.4958375,#6B7311,,,Fuel Sales
Cincinnati Terminal,FUEL,,,,6555 River Rd,Cincinnati,OH,39.111331,-84.692824,#6B7312,,,Fuel Sales
Columbus Terminal,FUEL,,,,2000 Integrity Drive North,Columbus,OH,39.936664,-82.942112,#6B7313,,,Fuel Sales
Dayton Terminal,FUEL,,,,1708 Farr Drive,Dayton,OH,39.7870356,-84.1650022,#6B7314,,,Fuel Sales
Fairfield Terminal,FUEL,,,,1280 Hicks Blvd.,Fairfield,OH,39.3480109,-84.5371659,#6B7315,,,Fuel Sales
Lima Terminal,FUEL,,,,2050 North Dixie Highway,Lima,OH,40.764791,-84.057254,#6B7316,,,Fuel Sales
Red Rover Ashland ,FUEL,,419-287-7877,,1011 Jacobson Avenue,Ashland,OH,40.8761096,-82.3074798,#6B7317,,,Fuel Sales
Red Rover Canton,FUEL,,844-875-3811,,1700 Shepler Church Ave SW,Canton,OH,40.7708758,-81.3961746,#6B7318,,,Fuel Sales
Red Rover Dalton,FUEL,,844-875-3811,,39 N. Cochran St.,Dalton,OH,40.7986631,-81.6879293,#6B7319,,,Fuel Sales
Red Rover Millersburg,FUEL,,844-875-3811,,5868 County Road 201 ,Millersburg,OH,40.569808,-81.820753,#6B7320,,,Fuel Sales
Red Rover Mount Vernon,FUEL,,330-262-6502,,9090 Columbus Road,Mt Vernon,OH,40.3794632,-82.4958375,#6B7321,,,Fuel Sales
Red Rover Sugarcreek,FUEL,,844-875-3811,,754 State Route 93,Sugarcreek,OH,40.5172348,-81.648294,#6B7322,,,Fuel Sales
Red Rover Wooster,FUEL,,844-875-3811,,2990 Old Airport Road,Wooster,OH,40.8332279,-81.9068006,#6B7323,,,Fuel Sales
Richfield Terminal,FUEL,,,,3800 Congress Parkway,Richfield,OH,41.2135359,-81.6322876,#6B7324,,,Fuel Sales
Youngstown Terminal,FUEL,,,,11600 Mahoning Ave,North Jackson,OH,41.0997763,-80.869549,#6B7325,,,Fuel Sales
Zanesville Terminal,FUEL,,,,1039 Lee St,Zanesville,OH,39.9459741,-82.0195983,#6B7326,,,Fuel Sales
Wooster Bulk Plant,FUEL,,330-262-6501,,1055 West Old Lincoln Way,Wooster,OH,40.799379,-81.955658,#6B7327,,,Fuel Sales
JL Fuels,Main Office,,740-439-2797,lurdak@live.com,11227 Pleasant Road,Pleasant City,OH  43772,39.9084073,-81.5364764,#6B7328,,,Fuel Sales
Bloomingdale,FUEL,,888-944-1974,,1525 State Hwy 152,"Bloomingdale,",OH  43910,40.361414,-80.800309,#6B7330,,,Fuel Sales
Cadiz,FUEL,,740-942-0153,,994 East Market Street,Cadiz,OH  43907,40.254215,-80.9765012,#6B7331,,,Fuel Sales
Dillonvale,FUEL,,740-769-1796,,40 Smithfield Street,Dillonvale,OH  43917,40.202637,-80.771983,#6B7332,,,Fuel Sales
Beavecreek ,,,,,849 Factory Road,Beavercreek,OH  45434,39.713312,-84.028641,#6B7334,,,Fuel Sales
Springfield,,,,,2850 E. Leffel Lane,Springfield,OH  45505,39.891909,-83.765749,#6B7335,,,Fuel Sales
Sunbury,,,,,148 S. Vernon Street,Sunbury,OH  43074,40.3922018,-82.4854568,#6B7336,,,Fuel Sales
Oilworks,Main Office,,614-987-4886,oilworks@oilworksllc.com,"1611 Integrity Dr, E",Columbus,OH  43209,39.9349034,-82.9371879,#6B7337,,,Fuel Sales
"Ricochet Fuel Distributors, Inc,",FUEL,,833-724-2789,,1201 Royal Parkway,Euless,TX  76040,32.8207512,-97.1187559,#6B7338,,,Fuel Sales
Ashland,,,419-289-3610,,824 US-42,Ashland,OH  44805,40.77137,-82.4841719,#6B7340,,,Fuel Sales
Medina,,,330-725-4951,,6080 Norwalk Road,Medina,OH  44256,41.154863,-81.904334,#6B7341,,,Fuel Sales
Wellington  ,,,440-647-3725,,625 South Main Street,Wellington,OH  44090,41.3941943,-82.2272715,#6B7342,,,Fuel Sales
Ullman Oil Co.,Main Office,,440-543-5195,,9812 E. Washington St.,Chagrin Falls,OH,41.4302376,-81.3823918,#6B7344,,,Fuel Sales
Sugarcreek Division,,,,,"223 Yoder Ave, NW",Sugarcreek,OH,40.5061276,-81.6414273,#6B7345,,,Fuel Sales
Cleveland Hub,,,216-478-0501,,4500 Renaissance Pkwy,Cleveland ,OH,41.441464,-81.490023,#6B7347,,,Fuel Sales
Corporate office,Main Office,,440-354-3669,sales@meltzersfuel.com,755 E Erie St.,Painesville,OH,41.7362916,-81.2356167,#6B7351,,,Fuel Sales
Middlefield Bulk Plant,FUEL,,440-354-3669,sales@meltzersfuel.com,15031 Thompson Ave,Middlefield,OH,41.4600358,-81.0693992,#6B7352,,,Fuel Sales
Geneva Bulk Plant,FUEL,,440-354-3689,sales@meltzersfuel.com,2868 Pandanarum Rd.,Geneva,OH,41.7769,-80.949898,#6B7353,,,Fuel Sales
Tidioute Oil Co.,,,1-814-484-3565,sales@meltzersfuel.com,16 Buckingham St.,Tidioute ,PA,41.682732,-79.413138,#6B7354,,,Fuel Sales
Newcomerstown Bulk/ HQ,Main office,,740-498-6236,,100 West St.,Newcomerstown,OH,40.276076,-81.597263,#6B7356,,,Fuel Sales
New Philadelphia Bulk,Fuel,,330-339-7131,,130 Tenth St. SW,New Philadelphia,OH,40.491902,-81.46317,#6B7357,,,Fuel Sales
Caldwell Bulk,Fuel,,740-732-4555,,901 Miller St,Caldwell,OH,39.7498224,-81.5226689,#6B7358,,,Fuel Sales
Wooster Bulk,Fuel,,330-641-8998,,530 Palmer St,Wooster ,OH,40.8033064,-81.9247973,#6B7359,,,Fuel Sales
Circleville Bulk,Fuel,,740-474-4606,rader@rjwrightandsons.com,811 South Pickaway St.,Circleville,OH,39.5936206,-82.9464731,#6B7360,,,Fuel Sales
Varouh Oil,Fuel,,440-324-5025,,970 Griswold Rd.,Elyria,OH,41.4003257,-82.1205824,#6B7361,,,Fuel Sales
Ports Petroleum,Dustin ,,330-264-1885,,1337 Blachleyville Rd.,Wooster,OH ,40.77974,-81.967772,#6B7362,,,Fuel Sales
Carsten Oil,,,260-432-3507,,2910 Connett Ave.,Fort Wayne,IN,41.0590177,-85.1743141,#6B7363,,,Fuel Sales
Cadence Petroleium,Products/services,,,,2469 Creekway Dr,Columbus,OH,39.895243,-82.9331657,#6B7364,,,Fuel Sales
Stevenson Oil and Chemical,,,440-943-3337,stevensonoil@sbcglobal.net,30130 Lakeland Blvd.,Wickliffe,OH,41.6199857,-81.465354,#6B7365,,,Fuel Sales
Corporate Office,Main Office,,513-489-6000,,8280 Montgomery Rd. Suite 101,Cincinnati,OH,39.1431873,-84.4707053,#6B7367,,,Fuel Sales
Butler Distribution,,,800-772-5823,,150 Bonnie Dr.,Butler,PA,40.8639639,-79.873321,#6B7368,,,Fuel Sales
Columbus Distribution,,,614-871-1500,,2181 Hardy Parkway St.,Grove City,OH,39.913308,-83.037618,#6B7369,,,Fuel Sales
Kent Distribution,,,330-673-8800,,4411 Crystal Parkway,Kent ,OH,41.115451,-81.382548,#6B7370,,,Fuel Sales
Mansfield Distribution,,,,,375 North Main St.,Mansfield,OH,40.7686501,-82.5149815,#6B7371,,,Fuel Sales
Warminster Distribution,,,800-772-5823,,1020 Louis Dr.,Warminster,PA,40.2093536,-75.080494,#6B7372,,,Fuel Sales
Washington Distribution ,,,800-772-5823,,44 Bridge St.,Washington,PA,40.0979239,-79.8449736,#6B7373,,,Fuel Sales
The McGlaughlin Oil Co,,,800-839-6589,orders@mcglaughlinoil.com,3750 E. Livingston Ave.,Columbus,OH,39.945902,-82.895955,#6B7374,,,Fuel Sales
RD Holder Oil Co,HQ,,1-800-243-0432,,600 North Dayton-Lakeview Rd.,New Carlisle ,OH,39.9238079,-84.030828,#6B7375,,,Fuel Sales
,,,1-800-243-0432,,706 W Sandusky Ave.,Bellefontaine,OH,40.3633811,-83.7706542,#6B7376,,,Fuel Sales
,,,1-800-243-0432,,1000 Keller Dr.,Heath,OH,40.0347688,-82.4738745,#6B7377,,,Fuel Sales
,,,1-800-243-0432,,238 N Pierce Ave,Lancaster,OH,39.7160241,-82.6188528,#6B7378,,,Fuel Sales
,,,1-800-243-0432,,11611 State Route 571,Laura,OH,40.006341,-84.420413,#6B7379,,,Fuel Sales
,,,1-800-243-0432,,685 S Robets Ave,Lima,OH,40.772147,-84.0471,#6B7380,,,Fuel Sales
,,,1-800-243-0432,,2057 Dublin Rd,Columbus,OH,39.9969261,-83.0877677,#6B7381,,,Fuel Sales
,,,800-521-5420,,15140 State Route 328,Logan ,OH,39.50374,-82.370808,#6B7382,,,Fuel Sales
,,,1-800-243-0432,,1135 Warder St.,Springfield,OH,39.9257791,-83.7913258,#6B7383,,,Fuel Sales
,,,1-800-243-0432,,304 W Market St.,Washington Court House,OH,39.5354515,-83.4426771,#6B7384,,,Fuel Sales
Holmes Oil,Office,,330-893-2199,,5866 County Rd. 201,Millersburg,OH,40.569773,-81.820679,#6B7385,,,Fuel Sales
Holmes Oil,,James Halverson,330-317-8266,james@holmesoildistributing.com,5866 County Rd. 201,Millersburg,OH,40.569773,-81.820679,#6B7386,,,Fuel Sales
Holmes Oil,President,Jeremy Burgett,330-231-8635,jeremy@holmesoildistributing.com,5866 County Rd. 201,Millersburg,OH,40.569773,-81.820679,#6B7387,,,Fuel Sales
Ports Petroleum,,Dustin Kessinger,330-231-1649,dustink@portspetro.com,1337 Blachleyville Rd.,Wooster,OH,40.77974,-81.967772,#6B7388,,,Fuel Sales
Coles Energy,,Kip ,419-499-1120,info@colesenergyin.com,3619 State Route 113 E,Milan,OH,41.299935,-82.556685,#6B7389,,,Fuel Sales
Northeast Lubricants,General Manager,Dan Grummitt,216-701-5062,dgrumitt@glpetro.com,4500 Renaissance Pkwy.,Cleveland,OH,41.441464,-81.490023,#6B7390,,,Fuel Sales
Great Lakes Petroleum,Sales manager,Jeff Gregel,330-888-8589,jgregel@glpetro.com,4500 Renaissance Parkway,Cleveland,OH,41.441464,-81.490023,#6B7391,,,Fuel Sales
,Sales manager,Damon De Luca,919-594-4475,ddeluca@glpetro.com,11110 Westlake Drive,Charlotte,NC,35.1372164,-80.9711573,#6B7392,,,Fuel Sales
,Sales manager,Brannon Evans,404-852-5946,bevans@glpetro.com,3055 Humphries Hill Rd.,Austell,GA,33.8107785,-84.6453996,#6B7393,,,Fuel Sales
,Sales manager,Charles Reibling,704-302-4963,creibling@glpetro.com,14418 Smith Rd.,Humble,TX,29.929337,-95.287594,#6B7394,,,Fuel Sales
,Sales manager,Jeff Gregel,330-888-8589,jgregel@glpetro.com,PO Box 780040 ,Philadelphia,PA,39.9527237,-75.1635262,#6B7395,,,Fuel Sales
Cooperrider Water Hauling,,,740-404-4065,,,Thornville,Ohio,39.896454,-82.4201539,#3F6F7F,,,Water
Wagner Water Hauling,,,740-927-9686,,,Lancaster ,Ohio,39.7136754,-82.5993294,#3F6F7F,,,Water
"Aquasource Water Hauling, LLC",,Chris,937-642-9777,,,Marysville,Ohio,40.2364486,-83.3671432,#3F6F7F,,,Water
A to Z Water Hauling,,,937-964-8746,,,Springfield,Ohio,39.9234046,-83.810138,#3F6F7F,,,Water
Crabtree Water Hauling,,Tony,614-778-6261,,,Springfield,Ohio,39.9234046,-83.810138,#3F6F7F,,,Water
Mumaw Water Hauling,,,740-674-7238,,,Blue Rock,Ohio,39.8000697,-81.8915241,#3F6F7F,,,Water
CSB Transport-Pool and Spa Bulk Delivery,,,330-465-8822,,,Wooster,Ohio,40.7980976,-81.9397733,#3F6F7F,,,Water
Demboski Pool Water,,John,330-947-0201,,,Atwater ,Ohio,41.023947,-81.163433,#3F6F7F,,,Water
Spahr's Water Truck,,,330-697-4005,,,Rootstown,Ohio,41.0990792,-81.2424901,#3F6F7F,,,Water
Strouble Water Hauling and Trucking,,,330-877-6795,,,Louisville,Ohio,40.8375307,-81.2595731,#3F6F7F,,,Water
Sunrise Springs Water Truck,,,330-325-8001,,,Portage,Ohio,41.1496775,-81.2082,#3F6F7F,,,Water
Lakes Water Hauling,,Eric,513-620-1023,,,Cincinatti,Ohio,39.288494,-84.352955,#3F6F7F,,,Water
H2 Eco Bulk,,,888-575-5384,,,Houston,TX,29.7589382,-95.3676974,#3F6F7F,,,Water
E tank,,Brandon,412-715-3372,,,Cincinnati,Ohio,39.1014537,-84.5124602,#3F6F7F,,,Water
Gobel Towing,,,330-549-3562,,1860 S Range,North Lima,Ohio,40.9440518,-80.6691715,#8B3A3A,,,Heavy Haulers
CLT towing & transport,,Terry McCorkle,912-739-7800,,9899 US-280,Claxton,GA,32.1613788,-81.8955948,#8B3A3A,,,Heavy Haulers
Freight Pros,,Diane,770-725-4800,Diane@freightpros.net,,,,39.7837304,-100.445882,#8B3A3A,,,Heavy Haulers
 ,,Thad,941-776-3450,tsargent@B2Btranserv.com,1318 4th Avenue,Moline,IL,41.5062829,-90.5191483,#8B3A3A,,,Heavy Haulers
JBH Transport & Logistics,,,770-251-8921,dispatch@jbharrisgroup.com,129 Pine Road,Newnan,GA,33.4198484,-84.774356,#8B3A3A,,,Heavy Haulers
Nationwide Transport,,Andrew Young,859-475-1418,Andrew@nationwidetransportservices .com,2765 W Cypress Creek Rd.,Fort Lauderdale,FL,26.2033207,-80.1552825,#8B3A3A,,,Heavy Haulers
B& H Heavy Haul,,,770-786-7892,Bhwrecker@yahoo.com,795 Adamson Dr,Monroe,GA,34.134672,-82.900461,#8B3A3A,,,Heavy Haulers
Livingston LLC,,Edward Livingston,,edward@livingstontransportation.com,169 Blankenship Rd.,Texarkana,TX,33.42513,-94.04769,#8B3A3A,,,Heavy Haulers
Redi Mix & BuilderSupply ,Portland Cement,Greg Reshenberg,724-321-3830,gregr@stoneconcrete.com,,,Pennsylvania,40.9699889,-77.7278831,#7A4A63,,,Portland Cement
St Marys Cement,Portland Cement,De' Andre Davis,216-280-8202,Deandre.davis@vcimentos.com,250 Jefferson Avenue,Cleveland,Ohio,41.4823948,-81.6778329,#7A4A64,Terminal,Selfload,Portland Cement
St Marys Cement,Portland Cement,John Doubikin,614-203-4152,John.Doubikin@vcimentos.com,14531 Industrial Parkway,Marysville,Ohio,40.2172685,-83.329024,#7A4A65,Terminal,Long Lines,Portland Cement
St Marys Cement,Portland Cement,De' Andre Davis,216-280-8202,Deandre.davis@vcimentos.com,2301 Front Street,Toledo,Ohio,41.6664387,-83.4968108,#7A4A66,Terminal,,Portland Cement
St Marys Cement,Portland Cement,Mark Scripnick,519-878-6226,Mark.Scripnick@vcimentos.com,"PO Box 1000, 585 Water Street South",St Marys,Ontario,43.25009,-81.13304,#7A4A67,Plant,,Portland Cement
St Marys Cement,Portland Cement,David Gajich,416-802-9584,David.Gajich@vcimentos.com ,410 Bowmanville Ave,Bowmanville,Ontario,43.9022273,-78.696685,#7A4A68,Plant,,Portland Cement
St Marys Cement,Portland Cement,,,,1425 Farewell Street,Oshawa,Ontario,43.8956549,-78.8354891,#7A4A69,Terminal,,Portland Cement
St Marys Cement,Portland Cement,Grace Fitzpatrick,708-577-0​115,Grace.Fitzpatrick@vcimentos.com,400 Seahorse Drive,Waukegan,Illinois,42.368439,-87.823627,#7A4A70,Terminal?,,Portland Cement
St Marys Cement,Portland Cement,Steven Gynn,563-343-5909,Steven.Gynn@vcimentos.com,1914 White Oak Lane,Dixon,Illinois,41.8585533,-89.4576852,#7A4A71,Plant,,Portland Cement
St Marys Cement,Portland Cement,Grace Fitzpatrick,708-577-0​115,Grace.Fitzpatrick@vcimentos.com,12101 S. Doty Avenue,Chicago ,Illinois,41.6951383,-87.59993,#7A4A72,Terminal,,Portland Cement
St Marys Cement,Portland Cement,Vincent Finazzo,586-747-7978,Vincent.Finazzo@vcimentos.com,9333 Dearborn Street,Detriot,Michigan ,42.400693,-82.926266,#7A4A73,Plant,,Portland Cement
St Marys Cement,Portland Cement,Jason Chalupniczak,231-675-0694,Jason.Chalupniczak@vcimentos.com,16000 Bells Bay Road,Charlevoix,Michigan ,45.308112,-85.310236,#7A4A74,Plant,,Portland Cement
St Marys Cement,Portland Cement,Dean Bradfield,616-302-3399,Dean.Bradfield@vcimentos.com,555 W. 2nd Street,Ferrysburg,Michigan ,43.945718,-86.433025,#7A4A75,Terminal,,Portland Cement
St Marys Cement,Portland Cement,Greg DeFrancisco,(585) 448-9841,greg.defrancisco@vcimentos.com,389 Ganson Street,Buffalo ,New York,42.8711658,-78.8735973,#7A4A76,Terminal,,Portland Cement
St Marys Cement,Portland Cement,Lou Zeppieri,(516) 660-5682,louis.zeppieri@vcimentos.com,50 Oak Point Ave,Bronx,New York,40.808872,-73.8945276,#7A4A77,Terminal,,Portland Cement
St Marys Cement,Portland Cement,Michael Marzka,716-560-9979,Michael.marzka@vcimentos.com,1975 S. Carferry Drive,Milwaukee,Wisconsin ,43.0073224,-87.8960957,#7A4A78,Plant,Close proximity or same place,Portland Cement
St Marys Cement,Portland Cement,Chad Hemenway,708-986-7382,Chad.hemenway@vcimentos.com,2006 S. Kinnickinnic Ave,Milwaukee,Wisconsin ,43.0082401,-87.9069403,#7A4A79,Terminal,Close proximity or same place,Portland Cement
St Marys Cement,Portland Cement,Ryan Jones,708-470-9282,Ryan.jones@vcimentos.com,924 McDonald Street,Green Bay ,Wisconsin ,44.5257974,-88.0124771,#7A4A80,Terminal,,Portland Cement
St Marys Cement,Portland Cement,Ryan Jones,708-470-9283,Ryan.jones@vcimentos.com,1801 Spring Street,Manitowoc,Wisconsin ,44.1001055,-87.6706595,#7A4A81,Terminal,,Portland Cement
St Marys Cement,Portland Cement,,,,180 Barker St,Moncton,New Brunswick,46.0940447,-64.8108343,#7A4A82,Terminal,,Portland Cement
St Marys Cement,Portland Cement,,,,130 Mann St,Bedford,Nova Scotia,44.7498782,-63.6305093,#7A4A83,Terminal,,Portland Cement
St Marys Cement,Portland Cement,Jim Prendergast,(508) 685-6531,jim.prendergast@vcimentos.com,"Port of Providence, 39 New York Ave",Providence,Rhode Island,41.792376,-71.389389,#7A4A84,Terminal,,Portland Cement
St Marys Cement,Portland Cement,Rob Madore,(802) 236-2869,robert.madore@vcimentos.com,953 Odlin Road,Bangor,Maine,44.7812213,-68.8353213,#7A4A85,Terminal,,Portland Cement
St Marys Cement,Portland Cement,,,,"50, Road 132 Port-Daniel–Gascons, Quebec G0C 2N0",Port-Daniel–Gascons,Quebec,48.165726,-64.982454,#7A4A86,Plant,,Portland Cement
St Marys Cement,Portland Cement,Alexandre Turmel,514-265-2138,alexandre.turmel@vcimentos.com,6585 Boulevard Hébert (Boul or bd),Ste-Catherine,Quebec,52.00017,-71.99907,#7A4A87,Terminal,,Portland Cement
Fairborn Cement,Portland Cement,Mike Jackowski,,,3250 Linebaugh Road,Xenia,Ohio,39.779846,-83.974325,#7A4A88,Plant,,Portland Cement
Fairborn Cement,Slag Cement,Grant Webber,,,220 Walnut Street,Blacklick,Ohio,39.995643,-82.8117999,#7A4A89,Distribution Facility,,Portland Cement
Fairborn Cement,Slag Cement,Andy Hixon,,,3020 East 103rd Street,Chicago,Illinois,41.7085613,-87.5503503,#7A4A90,Plant,,Portland Cement
Fairborn Cement,Slag Cement,Tyler Southworth,(859) 321-6179,,3155 Homeward Way,Fairfield,Ohio,39.3304756,-84.5072323,#7A4A91,,,Portland Cement
Fairborn Cement,Slag Cement,Kurt Rosander,(412) 401-4556,,315 Poplar Street,Etna,Pennsylvania,40.492629,-79.9449293,#7A4A92,,,Portland Cement
Kosmos Cement,Portland Cement,,,,"1051 South Emerson Indianapolis, IN 46203",Indianpolis,Indiana,39.706241,-86.096893,#7A4A93,Terminal,,Portland Cement
Kosmos Cement,Portland Cement,,,,"15301 Dixie Hwy, Louisville, KY 40272",Louisville,Kentucky,38.0362745,-85.9085517,#7A4A94,Plant,,Portland Cement
Kosmos Cement,Portland Cement,,,,"Main St. & River Front, Ceredo WV 25507",Ceredo,West Virginia ,38.396529,-82.558723,#7A4A95,Terminal,,Portland Cement
Kosmos Cement,Portland Cement,,,,"1007 Maccorkle Avenue SW Charleston, WV 25303",Charleston,West Virginia ,38.3641258,-81.6738839,#7A4A96,Terminal,,Portland Cement
Kosmos Cement,Portland Cement,,,,"200 Barkley St Cincinnati, OH 45204",Cincinnati,Ohio,39.076247,-84.604473,#7A4A97,Terminal,,Portland Cement
Kosmos Cement,Portland Cement,,,,"958 Delaware Avenue Lexington, KY 40505",Lexington,Kentucky,38.0384412,-84.4725932,#7A4A98,Terminal,,Portland Cement
Kosmos Cement,Portland Cement,,,,"3301 Port West – East Mt. Vernon, IN 47620",Mt. Vernon,Indiana,38.400247,-86.934531,#7A4A99,Terminal,,Portland Cement
Kosmos Cement,Portland Cement,,,,"200 Neville Road Pittsburgh, PA 15225",Pittsburgh,Pennsylvania ,40.4942282,-80.0809961,#7A4A100,Terminal,,Portland Cement
Kosmos Cement,Portland Cement,,,,"21 Oldham St Nashville, TN 37213",Nashville,Tennesee ,36.1746568,-86.7762352,#7A4A101,Terminal,,Portland Cement
Lehigh/Heidelburg,Portland Cement,Kevin Redovan,614-563-5928,,"1550 Williams rd Columbus, OH 43207",Columbus,Ohio,39.89021,-82.9593887,#7A4A102,Terminal,,Portland Cement
Lehigh/Heidelburg,Portland Cement,Jerry Lewis,216-212-6802,jerry.lewis@heidelburgmaterials.com,"1101 Erieside Avenue Extended Cleveland, OH 44114",Cleveland,Ohio,41.505838,-81.701585,#7A4A103,Terminal,,Portland Cement
Lehigh/Heidelburg,Portland Cement,Jerry Lewis,216-212-6802,jerry.lewis@heidelburgmaterials.com,"8282 Middlebranch Road Middlebranch, OH 44652",Middle Branch,Ohio,40.900115,-81.327025,#7A4A104,Terminal,,Portland Cement
Lehigh/Heidelburg,Portland Cement,Brooke Doesburg,513-535-0271,,"2792 Glendale-Milford Road Cincinnati, OH 45241",Cincinnati ,Ohio,39.2513081,-84.3818452,#7A4A105,Terminal,,Portland Cement
Lehigh/Heidelburg,Portland Cement,Tony Demaio ,412-335-0170,,"100 Woodlawn Road Alipquippa, PA 15001",Aliquippa ,Pennsylvania,40.626241,-80.371376,#7A4A106,Terminal,,Portland Cement
Lehigh/Heidelburg,Portland Cement,Kevin Redovan,614-563-5928,,"6 Pickens Road Nitro, WV 25143",Nitro,West Virginia,38.4340465,-81.8404866,#7A4A107,Terminal,,Portland Cement
Lehigh/Heidelburg,Portland Cement,Joe Bartley,804-382-1832,,"500 Delaware Avenue Waynesboro, VA 22980",Waynesboro,Virginia,38.091474,-78.866541,#7A4A108,Terminal,,Portland Cement
Lehigh/Heidelburg,Portland Cement,Joe Bartley,804-382-1832,,"675 Quaker Hill Road Union Bridge, MD 21791",Union Bridge,Maryland,39.5568756,-77.1660145,#7A4A109,Terminal,,Portland Cement
Lehigh/Heidelburg,Portland Cement,Brooke Doesburg,513-535-0271,,"5 Beacon Drive Wilder, KY 41076",Wilder,Kentucky,39.0146619,-84.4803911,#7A4A110,Terminal,,Portland Cement
Lehigh/Heidelburg,Portland Cement,Steve Grytza,317-339-6687,,"6300 Columbus Avenue Anderson, IN 46013",Anderson ,Indiana ,40.0505963,-85.6636979,#7A4A111,Terminal,,Portland Cement
Lehigh/Heidelburg,Portland Cement,,,,210 Detroit Street Windsor ON N9C 2P1,Windsor,Ontario,42.281863,-83.029189,#7A4A112,,,Portland Cement
Lehigh/Heidelburg,Portland Cement,Steve Somerville,610-746-2222,,537 Evansville Rd Fleetwood PA 19522,Fleetwood,Pennsylvania,40.471116,-75.885998,#7A4A113,Terminal,,Portland Cement
Lehigh/Heidelburg,Portland Cement,Joe Bartley,804-382-1832,,"3100 Mertens Avenue Baltimore, MD 21224",Baltimore,Maryland,39.2629116,-76.5713156,#7A4A114,Terminal,,Portland Cement
Lehigh/Heidelburg,Portland Cement,Joe Bartley,804-382-1832,,"8791 Hampton Blvd. Norfolk, VA 23505",Norfolk,Virginia,36.9324524,-76.3177426,#7A4A115,Terminal,Facitiy: 757-423-4462,Portland Cement
Lehigh/Heidelburg,Portland Cement,Steve Somerville,610-746-2222,,"3938 Easton Nazareth Hwy Nazareth, PA 18064",Nazareth,Pennsylvania,40.7313124,-75.3059801,#7A4A116,Terminal,,Portland Cement
Lehigh/Heidelburg,Portland Cement,Stanley Trella,484-269-1748,,"63 Flushing Avenue, Unit 295 Brooklyn, NY 11205
",Brooklyn,New York,40.69794,-73.97507,#7A4A117,Terminal,,Portland Cement
Lehigh/Heidelburg,Portland Cement,Joe Bartley,804-382-1832,,"13021 Ramblewood Dr. Chester, VA 23836
",Chester,Virginia,37.349974,-77.392883,#7A4A118,Terminal,,Portland Cement
Lehigh/Heidelburg,Portland Cement,Joe Bartley,804-382-1832,,"1031 Drew Street Durham, NC 27701
",Durham,North Carolina,36.0021052,-78.8830815,#7A4A119,Terminal,,Portland Cement
Lehigh/Heidelburg,Portland Cement,Steve Grytza,317-339-6687,,"3084 W Co Rd 225 S Logansport, IN 46947",Logansport,Indiana ,40.751666,-86.381991,#7A4A120,Terminal,,Portland Cement
Lehigh/Heidelburg,Portland Cement,Justin Edwards,317-471-9608,,"180 Main Street Mitchell, IN 47446
",Mitchell,Indiana ,38.7343212,-86.466834,#7A4A121,Terminal,,Portland Cement
Lehigh/Heidelburg,Portland Cement,Todd Deerr,502-419-8610,,"301 US 31 Sellersburg, IN 47172
",Sellersburg,Indiana ,38.4110515,-85.7527312,#7A4A122,Terminal,,Portland Cement
Texas Lehigh,Portland Cement,Bill Wilkins,817-296-6829,,"600 North Highway 377 Roanoke, TX 76262",Roanoke,Texas,33.003657,-97.227811,#7A4A123,Terminal,,Portland Cement
Texas Lehigh,Portland Cement,Marvin Bragewitz,512-434-9330,,"2002 Old Marlin Road Waco, TX 76705",Waco,Texas,31.5465727,-97.071019,#7A4A124,Terminal,,Portland Cement
Texas Lehigh,Portland Cement,John Williams,210-827-8200,,"565 T. C. Jester Boulevard Houston, TX 77007",Houston,Texas,29.7833639,-95.4176839,#7A4A125,Terminal,,Portland Cement
Texas Lehigh,Portland Cement,Marvin Bragewitz,512-434-9330,,"1000 Jack C. Hays Trail Buda, TX 7810",Buda,Texas,30.0742771,-97.8533597,#7A4A126,Terminal,,Portland Cement
Lehigh/Heidelburg,Portland Cement,Mark Camptbell,770-597-3535,,"2194 West Point Avenue College Park, GA 30337",College Park,Georgia,33.6372389,-84.4603823,#7A4A127,Terminal,Sales: 800-955-0015,Portland Cement
Lehigh/Heidelburg,Portland Cement,Mark Camptbell,770-597-3535,,"6555 Button Gwinnett Drive Doraville, GA 30340",Doraville,Georgia,33.903093,-84.2417838,#7A4A128,Terminal,Sales: 800-955-0015,Portland Cement
Lehigh/Heidelburg,Portland Cement,Mark Camptbell,770-597-3535,,"15990 East Cherokee Drive Ball Ground, GA 30107",Ball Ground,Georgia,31.999225,-81.071804,#7A4A129,Terminal,Sales: 800-955-0015,Portland Cement
Lehigh/Heidelburg,Portland Cement,Tony Dimaggio,321-783-0373,,"1996 E. Beaver Street Jacksonville, FL 32202",Jacksonville,Florida,30.3243656,-81.6282174,#7A4A130,Terminal,Sales: 800-432-0135,Portland Cement
Lehigh/Heidelburg,Slag Cement,Dominic Jampo,484-507-4110,,"595 Morgan St., Camden, NJ 8104",Camden,New Jersey,39.9125682,-75.1182494,#7A4A131,Plant,,Portland Cement
Lehigh/Heidelburg,Portland Cement,David Wells,952-412-9194,,"700 25th Street NW, Mason City, IA, 50401",Mason City,Iowa,43.1767586,-93.2057142,#7A4A132,Terminal,,Portland Cement
Lehigh/Heidelburg,Portland Cement,John Ellis,860-759-0517,,"120 Alpha Blvd., Catskill, NY, 12414",Catskill,New York,42.1454381,-73.9127835,#7A4A133,Terminal,,Portland Cement
Lehigh/Heidelburg,Portland Cement,Tommy Granade,770-408-8869,,"8401 Second Avenue, Leeds, AL, 35094",Leeds,Alabama,33.543008,-86.545861,#7A4A134,Terminal,,Portland Cement
Lehigh/Heidelburg,Slag Cement,Ed Hernandez,321-652-9965,,"575 Cargo Road, Port Canaveral, FL, 32920",Port Canaveral,Florida,28.41611,-80.60783,#7A4A135,Terminal,,Portland Cement
Lehigh/Heidelburg,Portland Cement,Ed Hernandez,321-652-9966,,"9012 Marlin Street, Cape Canaveral, FL, 32920",Cape Canaveral,Florida,28.405411,-80.608812,#7A4A136,Terminal,,Portland Cement
Lehigh/Heidelburg,Portland Cement,,,,"575 Commissioners Street, Toronto, ON M4M 1A5",Toronto,Ontario,43.653668,-79.331208,#7A4A137,Terminal,,Portland Cement
Lehigh/Heidelburg,Portland Cement,John Ellis,860-759-0517,,"361 Boxart Street, Rochester, NY, 14612",Rochester,New York,43.2264842,-77.6185688,#7A4A138,Terminal,,Portland Cement
Lehigh/Heidelburg,Portland Cement,Jarret Hager,587-985-8454,,"10616-87 Avenue, Fort St. John, BC V1J 5K7",Fort St. John,British Columbia,56.233827,-120.85598,#7A4A139,Terminal,Sales: 800-252-9304,Portland Cement
Texas Lehigh,Portland Cement,David Sobczak,512-295-9208,,"1800 East Navigation Blvd. Corpus Christi, TX 78402",Corpus Christi,Texas,27.735341,-97.39385,#7A4A140,Terminal,,Portland Cement
Lehigh/Heidelburg,Portland Cement,Nelson Hernandez,954-822-4166,,"2600 Eisenhower Blvd. Fort Lauderdale, FL 33316",Fort Lauderdale,Florida,26.0987789,-80.1244866,#7A4A141,Terminal,Sales: 800-432-0135,Portland Cement
Lehigh/Heidelburg,Portland Cement,John Ellis,860-759-0517,,"29 West First Street, Oswego, NY, 13126",Oswego,New York,43.449403,-76.540692,#7A4A142,Terminal,,Portland Cement
Lehigh/Heidelburg,Portland Cement,,,,,,,39.7837304,-100.445882,#7A4A143,,,Portland Cement
Lafarge/Holcim,Portland Cement,,419) 897-7676,,"1135 Worden Road Wickliffe, OH 44092",Wickliffe,Ohio,41.616502,-81.4704303,#7A4A144,Warehouse,"<just attached numbers, unsure if",Portland Cement
Lafarge/Holcim,Portland Cement,,(216) 781-9330,,"2500 Elm Street Cleveland, OH 44113",Cleveland ,Ohio,41.496685,-81.70893,#7A4A145,Terminal,Sales or terminal number,Portland Cement
Lafarge/Holcim,Portland Cement,,(740) 423-5900,,"1684 State Route 618 Belpre, OH 45714",Belpre,Ohio,39.276467,-81.595425,#7A4A146,Terminal,Looks Good ------>,Portland Cement
Lafarge/Holcim,Portland Cement,,(419) 897-7676,,"11435 CR-176 Paulding, OH 45879",Paulding,Ohio,40.96287,-84.079648,#7A4A147,,Looks Good ------>,Portland Cement
Lafarge/Holcim,Portland Cement,,(614) 491-5873,,"1801 Watkins Road Columbus, OH 43207",Columbus,Ohio,39.9041587,-82.9454979,#7A4A148,Terminal,Looks Good ------>,Portland Cement
Lafarge/Holcim,Portland Cement,,(419) 241-2526,,"840 Water Street Toledo, OH 43604",Toledo,Ohio,41.6551875,-83.5268635,#7A4A149,Terminal,Looks Good ------>,Portland Cement
Lafarge/Holcim,Portland Cement,,(419) 897-7676,,"21880 West State Route 163 Genoa, OH 43430",Genoa,Ohio,41.515476,-83.35299,#7A4A150,Bagging Facility?,Looks Good ------>,Portland Cement
Lafarge/Holcim,Portland Cement,,(513) 251-5668,,"3270 Southside Ave. Cincinnati, OH 45204",Cincinnati ,Ohio ,39.0831601,-84.5746103,#7A4A151,Terminal,Looks Good ------>,Portland Cement
Lafarge/Holcim,Portland Cement,,(419) 897-7676,,"30350 Wixom Road Wixom, MI 48393",Wixom,Michigan,42.515761,-83.537098,#7A4A152,Terminal,Unsure,Portland Cement
Lafarge/Holcim,Portland Cement,,,,"1 Fort Martin Road Maidsville, WV 26508",Maidsville,West Virgina ,39.6915176,-79.9489746,#7A4A153,,Might be inactive----------->,Portland Cement
Lafarge/Holcim,Portland Cement,,(724) 366-7816,,"Terminal Drive Weirton, WV 26062",Weirton,West Virgina ,40.408401,-80.539237,#7A4A154,Terminal,,Portland Cement
Lafarge/Holcim,Portland Cement,,(412) 922-2101,,"1529 Chartiers Valley Lane Pittsburgh, PA 15205",Pittsburgh,Pennsylvania ,40.4516929,-80.0901342,#7A4A155,Terminal,,Portland Cement
Lafarge/Holcim,Portland Cement,Ken Sienkiewicz,(313) 842-9258,,"1301 Springwells Court Detriot, MI 48209",Detroit,Michigan,42.391228,-83.00957,#7A4A156,Terminal/slag?,,Portland Cement
Lafarge/Holcim,Portland Cement,,(502) 583-0616,,"1310 W. Kentucky St. Louisville, KY 40210",Louisville,Kentucky,38.2409463,-85.7744596,#7A4A157,Terminal,,Portland Cement
Lafarge/Holcim,Portland Cement,,(419) 897-7676,,"29925 County Road 20 West Elkhart, IN 46517",Elkhart,Indiana,41.660373,-86.040047,#7A4A158,Terminal,,Portland Cement
Lafarge/Holcim,Portland Cement,,(770)-476-3781,,"3955 Buford Highway Duluth, GA 30096",Duluth,Georgia,33.9771803,-84.1623266,#7A4A159,Terminal,,Portland Cement
Lafarge/Holcim,Slag Cement,,205-568-9368,,"1555 Hartman Industrial Blvd., Birmingham, AL 35221",Birmingham,Alabama,33.457653,-86.9030834,#7A4A160,Plant,,Portland Cement
Lafarge/Holcim,Portland Cement,,203-468-6068,,"410 Waterfront St., New Haven, CT, 06512",New Haven,Connecticut,41.2942933,-72.9025766,#7A4A161,Terminal,,Portland Cement
Lafarge/Holcim,Portland Cement,,410-354-4707,,"3800 Hawkins Point Rd., Baltimore, MD, 21226",Baltimore,Maryland,39.202217,-76.551322,#7A4A162,Terminal,,Portland Cement
Lafarge/Holcim,Portland Cement,,301-739-1150,,"1260 Security Rd., Hagerstown, MD, 21742",Hagerstown,Maryland,39.648724,-77.6950173,#7A4A163,Plant,,Portland Cement
Lafarge/Holcim,Portland Cement,,617-241-9040,,"285 Medford Street, Charlestown, MA, 02129",Charlestown,Massachusetts,42.382381,-71.06115,#7A4A164,Terminal,,Portland Cement
Lafarge/Holcim,Portland Cement,,413-599-4829,,"2420 Boston Rd., Wilbraham, MA, 01095",Wilbraham,Massachusetts,42.149754,-72.4491948,#7A4A165,Terminal,,Portland Cement
Lafarge/Holcim,Portland Cement,,978-582-6300,,"541 Leominster Road, Lunenburg, MA, 01462",Lunenburg,Massachusetts,42.5745664,-71.726726,#7A4A166,Terminal,,Portland Cement
Lafarge/Holcim,Portland Cement,,201-437-2575,,"6 Commerce Street, Bayonne, NJ, 07002",Bayonne,New Jersey,40.6520642,-74.0964484,#7A4A167,Terminal,,Portland Cement
Lafarge/Holcim,Portland Cement,,716-854-5791,,"575 Ohio Street, Buffalo, NY, 14203",Buffalo,New York,42.861332,-78.8684688,#7A4A168,Terminal,,Portland Cement
Lafarge/Holcim,Portland Cement,,718-499-9205,,"75 25th Street, Brooklyn, NY, 11232",Brooklyn,New York,40.6620815,-74.0005235,#7A4A169,Terminal,,Portland Cement
Lafarge/Holcim,Portland Cement,,315-342-2872,,"1 W. Van Buren Street, Oswego, NY 13126",Oswego,New York,43.4590424,-76.5220279,#7A4A170,Terminal,,Portland Cement
Lafarge/Holcim,Portland Cement,,518-756-5000,,"1916 Route 9W, Ravena, NY, 12143",Ravena,New York,42.4982751,-73.8135826,#7A4A171,Plant,,Portland Cement
Lafarge/Holcim,Portland Cement,,704-399-3242,,"7245 Old Mount Holly Rd., Charlotte, NC, 28214",Charlotte,North Carolina,35.2782131,-80.927644,#7A4A172,Terminal,,Portland Cement
Lafarge/Holcim,Portland Cement,,800-845-1120,,"200 South Goley St, Durham, NC, 27701",Durham,North Carolina,35.984941,-78.885708,#7A4A173,Terminal,,Portland Cement
Lafarge/Holcim,Portland Cement,,336-449-1936,,"350 Cassell St., Winston-Salem, NC, 27107",Winston-Salem,North Carolina,36.111326,-80.255776,#7A4A174,Terminal,,Portland Cement
Lafarge/Holcim,Portland Cement,,610-261-3485,,"5160 Main Street, Whitehall, PA, 18052",Whitehall,Pennsylvania ,40.6896002,-75.5069401,#7A4A175,Plant,,Portland Cement
Lafarge/Holcim,Portland Cement,,401-467-8411,,"139 Terminal Rd., Providence, RI, 02905",Providence ,Rhode Island,41.7964274,-71.3925248,#7A4A176,Terminal,,Portland Cement
Lafarge/Holcim,Portland Cement,,800-845-1120,,"1801 Milford Street, Charleston, SC, 29405",Charleston,South Carolina,32.82759,-79.940414,#7A4A177,Terminal,,Portland Cement
Lafarge/Holcim,Portland Cement,,843-546-4151,,"Pier 31 Rd. Georgetown, SC, 29442",Georgetown,South Carolina,33.3699839,-79.268481,#7A4A178,Terminal,,Portland Cement
Lafarge/Holcim,Portland Cement,,800-845-7051,,"200 Safety Street/Highway 453, Holly Hill, SC, 29059",Holly Hill,South Carolina,33.320707,-80.410421,#7A4A179,Plant,,Portland Cement
Lafarge/Holcim,Portland Cement,,919-596-9141,,"308 South Plum Street, Durham, NC, 27703",Durham,North Carolina,35.9827848,-78.8848294,#7A4A180,Terminal,,Portland Cement
Lafarge/Holcim,Portland Cement,,718-445-2263,,"3130 College Point Blvd., Flushing, NY, 11354",Flushing,New York,40.7576482,-73.8340468,#7A4A181,Terminal,,Portland Cement
Lafarge/Holcim,Portland Cement,,800-422-6849,,"3051 Hamilton Blvd., Theodore, AL, 36582",Theodore,Alabama,30.554573,-88.1445717,#7A4A182,Plant,,Portland Cement
Lafarge/Holcim,Portland Cement,,615-771-1220,,"100 West Dairy St., Hope, AK, 71801",Hope,Arkansas,33.682108,-93.595771,#7A4A183,Terminal,,Portland Cement
Lafarge/Holcim,Portland Cement,,303-477-0432,,"1001 West 52nd Ave., Denver, CO, 80221",Denver ,Colorado,39.7910873,-105.0176661,#7A4A184,Terminal,,Portland Cement
Lafarge/Holcim,Portland Cement,,970-482-0122,,"3060 W. County Road 56, La Port, CO, 80535",La Port,Colorado,40.650559,-105.153033,#7A4A185,Terminal,,Portland Cement
Lafarge/Holcim,Portland Cement,,800-465-6266,,"3500 Highway 120, Florence, CO, 81226",Florence,Colorado,38.386629,-105.03966,#7A4A186,Plant,,Portland Cement
Lafarge/Holcim,Portland Cement,,888-625-4844,,"Highway 6 & 24, Rifle, CO, 81650",Rifle,Colorado,39.5508516,-107.780761,#7A4A187,Terminal,,Portland Cement
Lafarge/Holcim,Portland Cement,,770-606-1626,,"2961 Highway 411, White, GA, 30120",White,Georgia,34.237093,-84.757669,#7A4A188,Terminal,,Portland Cement
Lafarge/Holcim,Portland Cement,,770-787-1188,,"12143 Independence Dr., Covington, GA, ",Covington,Georgia,33.6161882,-83.8278261,#7A4A189,Terminal,,Portland Cement
Lafarge/Holcim,Portland Cement,,208-352-4418,,"350 Proctor St, Bliss, ID 83314",Bliss,Idaho,42.9267287,-114.9544337,#7A4A190,Terminal,,Portland Cement
Lafarge/Holcim,Portland Cement,,630-257-5416,,"12805 Grant Rd., Lemont, IL, 60439",Lemont,Illinois,41.698222,-87.9419664,#7A4A191,Terminal,,Portland Cement
Lafarge/Holcim,Portland Cement,,800-325-1176,,"2500 Portland Rd., Grand Chain, IL, 62941",Grand Chain,Illinois,37.221436,-88.872912,#7A4A192,Plant,,Portland Cement
Lafarge/Holcim,Portland Cement,,630-878-5468,,"1945 Patterson Rd., Joliet, IL, 60436",Joliet,Illinois,41.4818967,-88.1177062,#7A4A193,Terminal,,Portland Cement
Lafarge/Holcim,Slag Cement,,800-325-1176,,"2150 East 130th St., Chicago, IL, 60633",Chicago,Illinois,41.6592722,-87.5704545,#7A4A194,Terminal,,Portland Cement
Lafarge/Holcim,Portland Cement,,515-265-2224,,"2550 SE 43rd St., Des Moines, IA, 50317",Des Moines,Iowa,41.5609472,-93.5297474,#7A4A195,Terminal,,Portland Cement
Lafarge/Holcim,Portland Cement,,270-684-8863,,"1215 E. 2nd St., Owensboro, KY, 42303",Owensboro,Kentucky,37.7757725,-87.0979788,#7A4A196,Terminal,,Portland Cement
Lafarge/Holcim,Portland Cement,,225-355-8871,,"1255 Airline Highway, Baton Rouge, LA, 70805",Baton Rouge,Louisiana,30.5091117,-91.1522324,#7A4A197,Terminal,,Portland Cement
Lafarge/Holcim,Portland Cement,,,,,,,39.7837304,-100.445882,#7A4A198,,,Portland Cement
Lafarge/Holcim,Portland Cement,,*NOT FINISHED,,,,,39.7837304,-100.445882,#7A4A199,,,Portland Cement
Lafarge/Holcim,Portland Cement,,,,,,,39.7837304,-100.445882,#7A4A200,,,Portland Cement
Lafarge/Holcim,Portland Cement,,,,,,,39.7837304,-100.445882,#7A4A201,,,Portland Cement
Lafarge/Holcim,Portland Cement,,,,,,,39.7837304,-100.445882,#7A4A202,,,Portland Cement
Argos Cement,Portland Cement,Bill Norris,(216)-219-3448,Bnorris@Argos-US.com,"55 Leetsdale Industrial Dr, Leetsdale, PA 15056",Leetsdale,Pennsylvania,40.5673511,-80.2141398,#7A4A203,Terminal,,Portland Cement
Argos Cement,Portland Cement,Bill Norris,,,"411 Oberlin Ave SW, Massillon, OH 44647",Massillon,Ohio,40.7804362,-81.5229958,#7A4A204,Terminal,,Portland Cement
Argos Cement,Portland Cement,Bill Norris,,,"1826 Queen St, Martinsburg, WV 25401",Martinsburg,West Virgina ,39.4383058,-77.9738438,#7A4A205,Main Plant,,Portland Cement
Argos Cement,Portland Cement,,,,"155 Market Ave.Cordele, GA 31015",Cordele,Georgia,31.9871038,-83.7956948,#7A4A206,Cement Terminals,,Portland Cement
Argos Cement,Portland Cement,,301-874-8261,,"4120 Buckeystown Pike, Frederick, MD, 21704",Frederick,Maryland,39.3478272,-77.4265008,#7A4A207,Terminal,,Portland Cement
Argos Cement,Portland Cement,,800-331-0022,,"9680 Old Ridge Road, Ashland, VA, 23005",Ashland,Virginia,37.802835,-77.425693,#7A4A208,Terminal,,Portland Cement
Argos Cement,Portland Cement,,800-331-0022,,"4000 N.W.  County Road, Newberry, FL, 32669",Newberry,Florida,29.646882,-82.612998,#7A4A209,Plant,,Portland Cement
Argos Cement,Portland Cement,,800-331-0022,,"601 S Hoover Rd., Durham, NC, 27703",Durham ,North Carolina,35.9826202,-78.8631549,#7A4A210,Terminal,,Portland Cement
Argos Cement,Portland Cement,,800-331-0022,,"130 Builders Blvd., Fayetteville, NC, 28301",Fayetteville,North Carolina,35.0705631,-78.8786921,#7A4A211,Terminal,,Portland Cement
Argos Cement,Portland Cement,,800-331-0022,,"463 Judge St., Harleyville, SC, 29448",Harleyville,South Carolina,33.227408,-80.446834,#7A4A212,Plant,,Portland Cement
Argos Cement,Portland Cement,,800-331-0022,,"208 Jefferson St., Newnan, GA, 30263",Newnan,Georgia,33.3854368,-84.7909602,#7A4A213,Terminal,,Portland Cement
Argos Cement,Portland Cement,,800-331-0022,,"8039 Alabama 25 West, Calera, AL, 35040",Calera,Alabama,33.093626,-86.796254,#7A4A214,Plant,,Portland Cement
